stop_id,stop_name,stop_lat,stop_lon,location_type
100000351,Tornio På Gränsen Rajala,65.843294,24.145138,
100083169,Lappia Yrkesskola (FIN),65.851575,24.136419,
100083170,Torneå Badhus (FIN),65.839901,24.177823,
100083171,Torppi Handelsområde (FIN),65.843543,24.183867,
510000051,Krakow Gl,50.067987,19.947349,
510000937,Katowice Sadowa,50.258993,19.011149,
510005320,Wroclaw Dworzec autobusowy,53.615125,17.597224,
540099998,Praha UAN Florenc,50.089402,14.440369,
740000001,Stockholm Centralstation,59.330140,18.058155,
740000002,Göteborg Centralstation,57.708895,11.973479,
740000003,Malmö Centralstation,55.609458,13.000913,
740000004,Alvesta station,56.898781,14.556319,
740000005,Uppsala Centralstation,59.858534,17.646086,
740000006,Hässleholm Centralstation,56.157760,13.763139,
740000007,Norrköping Centralstation,58.596627,16.183347,
740000008,Skövde Centralstation,58.390897,13.853194,
740000009,Linköping Centralstation,58.416635,15.624963,
740000011,Teckomatorp station,55.870590,13.086124,
740000012,Vargön station,58.359221,12.392534,
740000014,Stenungsund station,58.072592,11.824760,
740000015,Boxholm station,58.193654,15.054149,
740000016,Vara station,58.260825,12.951876,
740000017,Hasslö Fabian Månsons väg,56.112498,15.470073,
740000018,Alingsås station,57.926861,12.532494,
740000019,Leksand station,60.733992,15.003328,
740000020,Kalmar Centralstation,56.661282,16.360067,
740000021,Kinnared station,57.026158,13.105522,
740000022,Perstorp station,56.136360,13.397194,
740000023,Säffle station,59.132229,12.916875,
740000024,Söderbärke station,60.072478,15.537072,
740000025,Storlien station,63.316083,12.099118,
740000026,Säter station,60.346490,15.757055,
740000027,Märsta station,59.628181,17.861620,
740000028,Ystad station,55.427317,13.824574,
740000029,Lönsboda busstation,56.396506,14.320810,
740000030,Falun Centralstation,60.603289,15.641625,
740000031,Flemingsberg station,59.217958,17.945683,
740000032,Bräcke station,62.750053,15.417085,
740000034,Forserum station,57.697835,14.473974,
740000035,Axvall centrum,58.388538,13.574720,
740000036,Floby station,58.139308,13.335301,
740000037,Ånn station,63.321229,12.538907,
740000038,Marstrand färjeläge,57.886695,11.588768,
740000039,Mellerud station,58.701861,12.464744,
740000040,Herrljunga station,58.079187,13.021275,
740000041,Tranås station,58.037967,14.975025,
740000042,Hedemora station,60.274000,15.980318,
740000043,Sollefteå station,63.166988,17.264907,
740000044,Helsingborg Centralstation,56.044404,12.694262,
740000045,Älmhult station,56.551426,14.136985,
740000046,Ramnäs station,59.769763,16.208185,
740000048,Charlottenberg station,59.883972,12.297648,
740000049,Södertälje hamn station,59.179302,17.646538,
740000050,Nyköping Centralstation,58.755685,16.994784,
740000051,Sollerön centrum,60.915526,14.617197,
740000052,Värnamo station,57.186284,14.035723,
740000053,Skellefteå busstation,64.753594,20.949227,
740000054,Hällevadsholm station,58.579860,11.535763,
740000055,Södertälje Syd station,59.162411,17.645368,
740000056,Överby station,58.843340,11.259379,
740000057,Trönninge,56.618004,12.946502,
740000058,Laholm station,56.501909,12.999604,
740000059,Björkliden station,68.406593,18.686674,
740000060,Falköping Centralstation,58.176101,13.553794,
740000062,Smedjebacken station,60.136321,15.405814,
740000063,Enafors station,63.289992,12.337211,
740000064,Ängelholm station,56.245202,12.854194,
740000065,Dingle station,58.529479,11.578971,
740000066,Nol station,57.918462,12.061958,
740000067,Läggesta station,59.248419,17.168022,
740000069,Ronneby station,56.206976,15.282939,
740000070,Karlstad Centralstation,59.377797,13.499048,
740000071,Gårdsjö station,58.871916,14.333548,
740000072,Enköping station,59.644324,17.086745,
740000073,Karlshamn station,56.176511,14.868018,
740000074,Kristineberg Lycksele,65.060466,18.573732,
740000075,Skee station,58.923379,11.261880,
740000076,Åmål station,59.046416,12.698151,
740000077,Hallsberg station,59.067102,15.110380,
740000078,Sävsjö station,57.402850,14.665306,
740000079,Sölvesborg station,56.049941,14.582737,
740000080,Halmstad Centralstation,56.669272,12.864842,
740000081,Nödinge station,57.893119,12.044648,
740000082,Västervik station,57.755505,16.643236,
740000083,Håkantorp station,58.307045,12.907294,
740000084,Eksjö station,57.663797,14.975677,
740000086,Vetlanda station,57.425797,15.082032,
740000087,Munkedal station,58.464900,11.678067,
740000088,Trelleborg Centralstation,55.371526,13.161086,
740000089,Hestra station,57.443284,13.595839,
740000090,Jönköping Centralstation,57.784706,14.163322,
740000091,Alstermo Värdshuset,56.973633,15.659574,
740000092,Onsala kyrka,57.413182,12.020552,
740000093,Lindesberg station,59.594593,15.228831,
740000094,Ulricehamn busstation,57.793759,13.411675,
740000095,Strömstad station,58.936523,11.173324,
740000096,Emmaboda station,56.629746,15.535501,
740000097,Tällberg station,60.818240,15.018401,
740000098,Ljungskile station,58.224681,11.921123,
740000099,Västerås Centralstation,59.607703,16.551708,
740000100,Limmared station,57.536121,13.352742,
740000102,Bjuv station,56.083078,12.912316,
740000103,Ingelstad centrum,56.745098,14.921150,
740000104,Kallinge torg,56.246025,15.286923,
740000105,Ånge station,62.523268,15.658427,
740000106,Kosta Glasblåsarevägen,56.853747,15.396089,
740000107,Grästorp station,58.334803,12.684808,
740000108,Strängnäs station,59.371168,17.026005,
740000109,Fristad station,57.826907,13.008293,
740000110,Varberg station,57.109376,12.248083,
740000111,Avesta Krylbo station,60.129669,16.215930,
740000112,Gnosjö station,57.358238,13.735508,
740000113,Sollebrunn busstation,58.118728,12.534071,
740000114,Abisko Turiststation,68.358166,18.780111,
740000115,Åre station,63.398791,13.075922,
740000116,Landeryd station,57.076882,13.266183,
740000117,Lenhovda skola,57.000172,15.284164,
740000118,Lysekil Södra Hamnen,58.273323,11.437780,
740000119,Uddevalla Centralstation,58.354201,11.922754,
740000120,Lund Centralstation,55.708098,13.186901,
740000121,Klippan station,56.130841,13.128375,
740000122,Moheda station,57.003279,14.576861,
740000123,Östersund Centralstation,63.170918,14.637752,
740000124,Norrhult Industrigatan,57.124243,15.168763,
740000125,Kaisepakte station,68.289115,19.299427,
740000126,Järpen station,63.342477,13.471780,
740000127,"Deje, Järnvägsstation",59.603046,13.471575,
740000128,Bollnäs station,61.349734,16.391613,
740000129,Degerfors station,59.229130,14.439841,
740000130,Sundsvall Centralstation,62.386874,17.315631,
740000131,Rottne Gullebovägen,57.021332,14.893027,
740000132,Partille station,57.740870,12.102856,
740000133,Örebro Centralstation,59.278941,15.211345,
740000134,Ryd busstation,56.461963,14.692976,
740000135,Ängelsberg station,59.958462,16.009393,
740000136,Strömsnäsbruk,56.550582,13.731999,
740000137,Rensjön station,68.071716,19.829214,
740000138,Skurup station,55.480071,13.500376,
740000140,Nässjö Centralstation,57.652439,14.693983,
740000141,Bromölla station,56.067341,14.479503,
740000142,Undersåker station,63.314803,13.237891,
740000143,Borgstena station,57.883198,13.014915,
740000144,Luleå Centralstation,65.584090,22.164938,
740000145,Vislanda station,56.786993,14.453581,
740000146,Järvsö station,61.715872,16.172238,
740000147,Ytterån,63.317459,14.170020,
740000148,Lidköpings resec (tåg),58.504528,13.163896,
740000149,Nykvarn station,59.179168,17.430924,
740000150,Boden C/Resecentrum,65.828740,21.706992,
740000151,Abisko Östra station,68.348470,18.829267,
740000152,Väckelsång centrum,56.638334,14.921044,
740000153,Mörsil station,63.308435,13.657357,
740000154,Söderhamn station,61.299600,17.035680,
740000155,Åstorp station,56.133968,12.949186,
740000156,Älvsbyn station,65.678202,20.994585,
740000157,Veinge station,56.553078,13.075414,
740000158,Rättvik station,60.885117,15.115629,
740000159,Viskafors station,57.628557,12.843709,
740000160,Borlänge Centralstation,60.483536,15.425840,
740000161,Kungsbacka station,57.490554,12.079615,
740000162,Grängesberg station,60.076395,15.005464,
740000164,Skillingaryd station,57.428568,14.090788,
740000165,Nälden station,63.348704,14.254307,
740000166,Katrineholm Centralstation,58.996592,16.208325,
740000167,Köping station,59.506671,16.004218,
740000169,Simrishamn station,55.554028,14.351946,
740000170,Eskilstuna Centralstation,59.369486,16.505197,
740000171,Tenhult station,57.705176,14.326399,
740000172,Motala station,58.537486,15.048310,
740000173,Öxnered station,58.359220,12.273696,
740000174,Krokvik station,67.932736,20.066910,
740000175,Fellingsbro station,59.433524,15.592065,
740000176,Karlskoga busstation,59.326793,14.512131,
740000177,Mölltorp centrum,58.493499,14.415142,
740000178,Stöpen Stöpenskolan,58.475321,13.865140,
740000179,Vinslöv station,56.104898,13.916896,
740000180,Mjölby station,58.322982,15.131988,
740000181,Vännäs Resecentrum/Station,63.908689,19.749817,
740000182,Ullared bussterminal,57.136535,12.716637,
740000183,Töreboda station,58.706023,14.128392,
740000184,Sunne station,59.835577,13.149300,
740000185,Höör station,55.937023,13.541399,
740000186,Skinnskatteberg station,59.832576,15.692518,
740000187,Hudiksvall station,61.724494,17.109038,
740000188,Tvååker Centrum,57.041605,12.398459,
740000189,Nybro station,56.742360,15.909170,
740000190,Umeå Centralstation,63.830061,20.266814,
740000191,Trollhättan Centralstation,58.287580,12.299219,
740000192,Kumla station,59.126374,15.140280,
740000194,Laxå station,58.989392,14.616658,
740000195,Sandviken station,60.614347,16.777880,
740000196,Virsbo station,59.872616,16.084065,
740000197,Svängsta centrum,56.263288,14.770939,
740000198,Ljusdal station,61.826855,16.097120,
740000200,Kristianstad Centralstation,56.031667,14.151260,
740000202,Insjön station,60.675343,15.094367,
740000203,Floda station,57.810065,12.361332,
740000205,Mölnlycke station,57.656692,12.117366,
740000206,Kil station,59.505031,13.316342,
740000207,Hindås station,57.704446,12.451227,
740000210,Gävle Centralstation,60.676119,17.151220,
740000211,Landskrona Drottninggatan,55.867897,12.830868,
740000212,Reftele station,57.175797,13.593414,
740000213,Oskarshamn station,57.263261,16.457499,
740000214,Sala station,59.924962,16.605447,
740000215,Mullsjö Station,57.914799,13.881707,
740000216,Mariestad station,58.712104,13.824498,
740000217,Grums station,59.352987,13.113766,
740000218,Hofors station,60.569571,16.266361,
740000219,Hällnäs station,64.305640,19.625940,
740000220,Kramfors station,62.929115,17.778180,
740000221,Arvika station,59.653591,12.591149,
740000222,Kristinehamn station,59.316500,14.108293,
740000223,Gullspång busstation,58.986007,14.098895,
740000224,Träslövsläge kyrka,57.053738,12.279156,
740000225,Tofta station,57.173488,12.300404,
740000226,Åkers styckebruk,59.253156,17.095147,
740000227,Skeppshult station,57.126481,13.360255,
740000228,Krokom station,63.325990,14.448414,
740000229,Riksgränsen station,68.425725,18.127420,
740000230,Karlskrona Centralstation,56.166672,15.585368,
740000231,Habo station,57.906604,14.076784,
740000232,Vaggeryd station,57.498331,14.145133,
740000233,Tanum station,58.713712,11.295263,
740000234,Sennan station,56.771823,12.980033,
740000235,Lessebo station,56.749535,15.259041,
740000238,Rävlanda station,57.654588,12.500422,
740000239,Vindeln Resecentrum/Station,64.202882,19.712689,
740000241,Vänersborg Centralstation,58.377638,12.317816,
740000242,Timrå station,62.486396,17.330549,
740000243,Bollebygd station,57.667229,12.568772,
740000244,Storvik station,60.582156,16.534530,
740000245,Ljung station,57.986611,13.053179,
740000246,Rydöbruk station,56.959368,13.136307,
740000248,Nyåker Affären,63.766996,19.309499,
740000249,Oxelösund centrum,58.669573,17.105557,
740000250,Växjö station,56.876779,14.806789,
740000252,Hok station,57.514182,14.275049,
740000253,Härnösand station,62.635184,17.928637,
740000254,Gällivare C/Resecentrum,67.133537,20.651307,
740000255,Haverdal Haverdalsvägen,56.726809,12.665995,
740000256,Karlsborg busstation,58.530709,14.509637,
740000257,Falkenberg bussterminal,56.902164,12.488206,
740000258,Markaryd station,56.458889,13.593365,
740000260,Eslöv station,55.837715,13.305489,
740000261,Harplinge station,56.744397,12.724785,
740000262,Arboga station,59.397107,15.841061,
740000263,Mellansel station,63.428423,18.307723,
740000265,Nattavaara station,66.753896,20.950842,
740000266,Fagersta Centralstation,59.990463,15.815703,
740000267,Gullbrandstorp,56.704254,12.732562,
740000268,Murjek station,66.484137,20.880716,
740000269,Getinge centrum,56.819166,12.733228,
740000270,Karlholm Karlitplan,60.520209,17.629006,
740000271,Derome station,57.230410,12.319787,
740000272,Sandared station,57.709614,12.792489,
740000273,Valbo Ikea,60.633475,16.988561,
740000274,Torsby station,60.136564,13.002504,
740000275,Nyland ICA,63.006518,17.760399,
740000276,Mariefred Busstation,59.263866,17.230486,
740000277,Ockelbo station,60.891310,16.721029,
740000279,Ellös busstation,58.182917,11.466562,
740000280,Kopparberg station,59.872712,14.986854,
740000282,Jörn station,65.054425,20.030386,
740000283,Ed station,58.913389,11.932942,
740000284,Kungsängen station,59.477882,17.752499,
740000285,Anneberg station,57.539264,12.101244,
740000286,Assberg station,57.494832,12.669702,
740000287,Väse station,59.381611,13.853492,
740000288,Flen station,59.057299,16.588915,
740000289,Smålandstenar station,57.161601,13.415006,
740000290,Tyringe station,56.159791,13.598202,
740000291,Ludvika station,60.149828,15.182649,
740000292,Grebbestad busstation,58.691876,11.253984,
740000293,Frövi station,59.467644,15.363782,
740000294,Bastuträsk station,64.790005,20.041180,
740000295,Osby station,56.379948,13.994255,
740000296,Fjällbacka,58.599656,11.285667,
740000297,Fiskebäckskil,58.243414,11.458565,
740000298,Brastad centrum,58.382069,11.484805,
740000299,Rabbalshede station,58.610027,11.470596,
740000300,Borås Centralstation,57.720838,12.932004,
740000301,Tierp station,60.345326,17.514373,
740000302,Mora station,61.009054,14.560045,
740000303,Djurås station,60.560178,15.138594,
740000306,Ammarnäs,65.957510,16.210914,
740000307,Åmotfors station,59.768950,12.366329,
740000308,Duved station,63.389761,12.917674,
740000309,Bjurholm busstation,63.931991,19.216238,
740000310,Boliden busstation,64.867752,20.384421,
740000311,Malmbäck station,57.577881,14.460441,
740000312,Torup Station,56.957575,13.079870,
740000313,Oskarström station,56.806491,12.971953,
740000314,Skene station,57.488187,12.648616,
740000315,Mölndal station,57.655957,12.018724,
740000316,Borgafjäll,64.835164,15.085059,
740000317,"Bureå Torg, Skellefteå",64.617888,21.200256,
740000318,Burträsk busstation,64.521082,20.661339,
740000319,Hemavan köpcentrum E12,65.820131,15.083720,
740000320,Svenshögen station,58.144868,11.935715,
740000321,Kolbäck station,59.563836,16.232474,
740000322,Gagnef station,60.598796,15.081378,
740000323,Tomelilla station,55.546552,13.948940,
740000324,Gällö station,62.911122,15.229455,
740000325,Ljungaverk station,62.495646,16.067603,
740000326,Kaitum station,67.543804,20.108031,
740000328,Ärla station,59.283043,16.675984,
740000330,Skärhamn torg,57.991227,11.546387,
740000331,Delsbo Torg,61.799536,16.554056,
740000333,Jämjö centrum,56.191968,15.835048,
740000335,Kållered station,57.609928,12.048619,
740000336,Broby busstation,56.253662,14.075196,
740000338,Åtvidaberg station,58.203692,16.002328,
740000339,Berghem station,57.466980,12.598371,
740000340,Åhus Järnvägsgatan,55.927021,14.302792,
740000342,Rydaholm station,56.986254,14.311449,
740000343,Brösarp bussterminal,55.727803,14.096775,
740000344,Kisa station,57.985383,15.633808,
740000345,Kilafors station,61.230969,16.570443,
740000346,Degeberga Skaddevägen,55.837502,14.090144,
740000347,Storfors station,59.533169,14.271409,
740000348,Hultsfred station,57.486757,15.846746,
740000349,Jörlanda,57.987145,11.830249,
740000350,Hofors centrum,60.544962,16.286548,
740000351,Vimmerby station,57.663155,15.858268,
740000353,Fritsla station,57.557844,12.789918,
740000354,Bergfors station,68.148675,19.781075,
740000355,Smögen busstation,58.357214,11.230458,
740000356,Kungshamn busstation,58.361434,11.249397,
740000357,Hunnebostrand,58.439796,11.304491,
740000358,Grundsund,58.213187,11.421947,
740000359,Ottebol station,59.696103,12.469771,
740000360,Lycksele Resecentrum/Station,64.595360,18.667984,
740000361,Örebro Södra station,59.269985,15.202329,
740000362,Åseda station,57.167830,15.347095,
740000363,Veddige station,57.266938,12.337596,
740000364,Årjäng Busstationen,59.394407,12.131375,
740000365,Rimforsa station,58.135547,15.681699,
740000366,Mörrum station,56.186732,14.744670,
740000367,Malung centrum,60.683797,13.710869,
740000368,Bräkne-Hoby station,56.230880,15.115697,
740000370,Bovallstrand,58.474037,11.327221,
740000371,Hassela busstation,62.110203,16.706544,
740000372,Haparanda station,65.828367,24.131896,
740000373,Tibro busstation,58.425291,14.160837,
740000374,Kittelfjäll,65.249429,15.490242,
740000375,Forshaga Centrum,59.532738,13.480348,
740000376,Hagfors Busstationen,60.035459,13.693684,
740000377,Kåge C,64.832233,20.990055,
740000378,Fränsta station,62.496142,16.167502,
740000379,Aneby station,57.836233,14.810819,
740000380,Stöde station,62.419716,16.598610,
740000381,Munkfors Busstationen,59.834348,13.545841,
740000383,Barkarby station,59.404568,17.866055,
740000384,Surahammar station,59.706626,16.219685,
740000385,Tingsryd busstation,56.523998,14.975528,
740000386,Vedum station,58.169317,12.998538,
740000387,Malå busstation,65.183880,18.746651,
740000388,Gemla station,56.870071,14.644832,
740000389,Norsjö busstation,64.914477,19.484690,
740000390,Obbola Centralhållplats,63.701540,20.319008,
740000391,Robertsfors busstation,64.192305,20.847336,
740000392,Storvreta station,59.956065,17.706075,
740000394,Tärnaby busstation,65.710691,15.252423,
740000395,Åsele busstation,64.161654,17.350862,
740000397,Svedala station,55.506868,13.232410,
740000399,Vi centrum,62.428017,17.416210,
740000400,Bjästa busstation,63.201606,18.501742,
740000401,Bredbyn busstn,63.449068,18.107246,
740000402,Horred station,57.353342,12.477270,
740000403,Husum torget,63.329290,19.163414,
740000404,Gamleby station,57.896954,16.410235,
740000405,Mariannelund station,57.616407,15.585077,
740000406,Vansbro centrum,60.512026,14.226879,
740000407,Åkerstavägen,62.344252,17.018711,
740000408,Sveg station,62.035501,14.351596,
740000409,Kvissleby Njurundahallen,62.295498,17.379535,
740000410,Edane station,59.626829,12.829366,
740000411,Ramsele busstation,63.537084,16.469678,
740000413,Ramvik,62.818879,17.854651,
740000414,Fjällåsen station,67.518416,20.093422,
740000415,Rydsgård station,55.474233,13.587493,
740000417,Söråker köpcenter,62.506306,17.507319,
740000418,Högboda station,59.557620,13.051482,
740000419,Hällefors station,59.782636,14.518614,
740000420,Föllinge,63.670126,14.612784,
740000421,Strömsund busstation,63.849936,15.554988,
740000422,Gäddede busstation,64.503934,14.146050,
740000423,Hammarstrand busstation,63.108162,16.356164,
740000424,Björbo station,60.453458,14.729222,
740000425,Hammerdal busstation,63.582820,15.350216,
740000426,Fagerås station,59.519396,13.219949,
740000427,Hällekis station,58.630010,13.432555,
740000428,Storuman station,65.096995,17.112391,
740000429,Höglekardalen,63.078392,13.749215,
740000431,Garphyttan Kvarnvägen,59.308043,14.940556,
740000432,Vittsjö station,56.342113,13.663264,
740000433,Lysvik station,60.016032,13.137747,
740000434,Hoting station,64.115814,16.201975,
740000435,Ljungbyhed busstation,56.075325,13.233567,
740000436,Klimpfjäll,65.061949,14.800051,
740000438,Skyttorp station,60.079692,17.737155,
740000439,Forsheda station,57.163421,13.833089,
740000440,Bruksvägen,57.828223,12.014746,
740000441,Olofström station,56.279537,14.520084,
740000442,Järpås station,58.379245,12.969947,
740000445,Kall,63.473667,13.230247,
740000446,Äppelbo E16,60.490904,14.001138,
740000448,Edsåsdalen,63.315641,13.105983,
740000449,Ljungdalen,62.852863,12.790562,
740000450,Tollarp bibliotek,55.934328,13.974643,
740000451,Vilhelmina station,64.624719,16.656023,
740000452,Offerdal Ede,63.466259,14.013118,
740000453,Stora Blåsjön,64.836540,14.083623,
740000454,Stugun busstation,63.167567,15.596582,
740000455,Vålådalen fjällstation,63.148743,12.965211,
740000456,Kode station,57.944418,11.851007,
740000458,Vattholma station,60.025679,17.731060,
740000460,Färila busstation,61.798256,15.838681,
740000462,Mockfjärd gamla station,60.495737,14.958590,
740000463,Kårböle Pilgrimen,61.987152,15.298860,
740000464,Övertorneå busstation,66.390104,23.657564,
740000465,Bredaryd station,57.176325,13.738072,
740000466,Lugnås station,58.644555,13.702213,
740000467,Ullånger busstation,63.010922,18.188539,
740000468,Lyrestad station,58.805209,14.056947,
740000469,Sturkö Kvarnen,56.112955,15.681576,
740000470,Öregrund färjeläget,60.340584,18.446302,
740000471,"Sikeå E4, Robertsfors",64.168859,20.920380,
740000472,Yttermalung gamla station,60.580801,13.823710,
740000474,Klågerup busstation,55.597571,13.260224,
740000475,Bruksvallarna,62.637121,12.444377,
740000476,Örbyhus station,60.228695,17.705770,
740000477,Byske busstation,64.953986,21.203566,
740000478,Källby station,58.510590,13.302226,
740000480,Uddevalla Kampenhof,58.349913,11.930440,
740000481,Fjällnäs Högfjällspensionat,62.598283,12.179992,
740000482,Grythyttan station,59.704246,14.530401,
740000483,Gysinge Brukshandel,60.289729,16.885505,
740000484,Hova station,58.854713,14.215387,
740000485,Näsviken centrum,61.756718,16.866619,
740000486,Åkersjön,63.765046,14.080466,
740000488,Jämshög Bygatan,56.240676,14.530839,
740000489,Bispgården,63.027266,16.624751,
740000490,Klevshult station,57.352723,14.097368,
740000491,Funäsdalen busstation,62.545106,12.545374,
740000492,Arlanda Södra station,59.646172,17.928351,
740000493,Hede Härjedalen,62.418327,13.514386,
740000495,Klövsjö Torpvägen,62.519506,14.193627,
740000496,Falerum station,58.143424,16.207884,
740000497,Lofsdalen,62.112460,13.273735,
740000498,"Lövånger Busstation, Skellefteå",64.371137,21.306149,
740000499,Älvsered,57.241178,12.865693,
740000500,Berga station,57.216344,16.032714,
740000501,Rottneros station,59.795240,13.129148,
740000502,Svenljunga busstation,57.495251,13.108711,
740000503,Ytterhogdal station,62.197255,14.855226,
740000504,Västra Ämtervik station,59.727558,13.147136,
740000505,Smygehamn Ängavägen,55.345402,13.377708,
740000506,Ramundberget,62.700914,12.388692,
740000507,Spiken,58.690092,13.200767,
740000508,Tolita station,59.577857,13.239823,
740000510,Ekenässjön station,57.489661,15.019304,
740000511,Hovmantorp station,56.785842,15.140662,
740000512,Götene busstation,58.527416,13.491418,
740000513,Gråbo busstation,57.836804,12.298361,
740000514,Backe busstation,63.810716,16.405257,
740000515,Henån busstation,58.234591,11.681413,
740000516,Borensbergs bussterminal,58.562700,15.276473,
740000517,Simlångsdalen,56.720707,13.130410,
740000518,Anderstorp station,57.280395,13.627275,
740000519,Lagan Torggatan,56.916359,13.987339,
740000520,Påarp station,56.029265,12.817093,
740000521,Rödeby centrum,56.260703,15.618051,
740000523,Tranemo busstation,57.485131,13.351560,
740000524,Korsberga centrum,57.301195,15.125193,
740000525,Byxelkrok centrum,57.324395,17.008569,
740000526,Brunflo station,63.075860,14.832063,
740000527,Rossön södra,63.921243,16.339341,
740000529,Tänndalen,62.549243,12.309830,
740000530,Tännäs,62.442515,12.680771,
740000531,Blidsberg,57.930812,13.494388,
740000532,Vemdalen by,62.449579,13.863530,
740000533,Norrahammar station,57.704537,14.115452,
740000535,Näsåker Åkeriet,63.440680,16.907150,
740000536,Traryd Skolgatan,56.579560,13.746558,
740000537,Skånes-Fagerhult kyrka,56.368480,13.470006,
740000538,Junsele busstation,63.696110,16.879872,
740000539,Taberg station,57.678836,14.086893,
740000540,Lerum station,57.769359,12.272317,
740000541,Ånäset busstn,64.279721,21.043304,
740000542,Bäckebron station,59.661352,13.166227,
740000543,Gullringen station,57.802565,15.703519,
740000545,Skänninge station,58.392951,15.092572,
740000546,Mollaryd station,57.905981,13.022767,
740000547,Ormaryd station,57.664803,14.833298,
740000548,Kyrkhult,56.357125,14.587154,
740000549,Örkelljunga busstation,56.283185,13.281349,
740000551,Ringarum centrum,58.333516,16.445028,
740000552,Torpåkra station,57.940615,13.029492,
740000553,Kinna station,57.505979,12.698240,
740000554,Landvetter Airport,57.667881,12.295939,
740000555,Ljungby busstation,56.832134,13.936111,
740000556,Arlanda Centralstation,59.649570,17.929186,
740000557,Lindome station,57.576096,12.078477,
740000558,Borgholm busstation,56.882268,16.656249,
740000559,Knivsta station,59.725703,17.786688,
740000561,Mönsterås busstation,57.041151,16.447480,
740000564,Nättraby hörnet,56.206887,15.530721,
740000567,Bjärnum busstation,56.292206,13.710190,
740000569,Vårgårda station,58.031203,12.810289,
740000570,Linaälv station,67.254719,20.242435,
740000571,Piteå busstation,65.319911,21.473603,
740000572,Bergkvara busstation,56.394659,16.065301,
740000573,Sälen centrum,61.156713,13.265801,
740000574,Grövelsjön fjällstationen,62.098677,12.312653,
740000575,Älvdalen busstation,61.223119,14.044474,
740000576,Söderköping busstation,58.478117,16.323432,
740000577,Sorsele station,65.534859,17.543944,
740000578,Norra Unnaryd väg 26,57.601487,13.747041,
740000579,Harrå station,67.407185,20.102854,
740000580,Kungälv resecentrum,57.871875,11.968505,
740000583,Asarum Storgatan,56.208993,14.833818,
740000584,Hällevik hamn,56.012282,14.698040,
740000585,Ytterby station,57.862332,11.917246,
740000587,Brokind station,58.220250,15.684465,
740000588,Mjällby centrum,56.045711,14.678034,
740000589,Alfta Centrum,61.344622,16.063003,
740000590,Edsbyn centrum,61.376057,15.818006,
740000591,Hörby busstation,55.856411,13.670567,
740000592,Bergsjö busstn,61.985487,17.057721,
740000593,Valdemarsviks busstation,58.204216,16.603725,
740000594,Nossebro busstation,58.187447,12.718757,
740000596,Hamrångefjärden,60.897854,17.069232,
740000597,Brömsebro E22,56.298521,16.000817,
740000598,Los Norrbyn,61.734850,15.185612,
740000599,Harmånger torget,61.928316,17.217130,
740000600,Tidaholm busstation,58.179529,13.955820,
740000601,Iggesund Konsum,61.642455,17.079719,
740000602,Gnarp station,62.055707,17.244239,
740000603,Lunde lv 332,62.877364,17.863702,
740000604,Undersvik,61.600946,16.306484,
740000605,Vagnhärad station,58.945735,17.496697,
740000606,Ödeshög torget,58.228887,14.653296,
740000607,Gränna hamn,58.028960,14.456045,
740000608,Hjo busstation,58.305228,14.293490,
740000609,Vrigstad busstation,57.356524,14.465944,
740000610,Askersund busstation,58.879267,14.907772,
740000611,Skara busstation,58.383246,13.439057,
740000612,Älvkarleby kraftverk,60.560902,17.444024,
740000613,Skutskär centrum,60.625509,17.412731,
740000615,Arbrå station,61.470321,16.380029,
740000616,Mantorp station,58.348625,15.290731,
740000619,Hörnefors Centrum,63.623605,19.908369,
740000620,Huskvarna station,57.782494,14.265303,
740000622,Stockholm Cityterminalen,59.330844,18.056374,
740000623,Rotebro station,59.476404,17.914337,
740000624,Gislaved busstation,57.304963,13.543007,
740000625,Hyltebruk bussterminal,56.998605,13.237366,
740000627,Marma station,60.490867,17.430611,
740000630,Horndals Bruk station,60.295885,16.413179,
740000631,Hedesunda busstation,60.393633,17.006336,
740000632,Holmsveden station,61.118135,16.721789,
740000633,Järbo busstation,60.715680,16.596060,
740000635,Lingbo station,61.044847,16.672847,
740000636,Ljusne torget,61.211271,17.128716,
740000637,Norrsundet Fabriksplan,60.937959,17.140721,
740000638,Ställdalen station,59.933652,14.943211,
740000639,Sandarne,61.260210,17.145477,
740000640,Årsunda Sörby,60.512010,16.732253,
740000641,Bjursås Korsvägen,60.734456,15.438877,
740000642,Skepplanda Albotorget,57.983511,12.211051,
740000643,Fredriksberg bussplan,60.139534,14.378333,
740000644,Drottningplan Grycksbo,60.687735,15.484873,
740000645,Grönklitt,61.207662,14.539198,
740000646,Sälen Hundfjället hotellet,61.178001,12.965424,
740000647,Idre Konsum,61.857838,12.726197,
740000648,Sälen Lindvallen Snöcentret,61.155181,13.205495,
740000649,Nyhammar torget,60.292045,14.969927,
740000651,Fårösund färjeläge,57.865282,19.057912,
740000653,Pilgrimstad station,62.955127,15.040249,
740000654,Sundborn affären,60.653044,15.774249,
740000655,Svärdsjö centrum,60.741375,15.905460,
740000656,Sälen Högfjällshotellet,61.157610,13.118004,
740000658,Tandådalen Fjällkyrkan,61.177485,12.993999,
740000659,Vikmanshyttan affären,60.297251,15.824942,
740000660,Bålsta station,59.568758,17.532813,
740000661,Gimo bussterminal,60.176448,18.188411,
740000662,Hallstavik station,60.050739,18.594131,
740000663,Lyckeby centrum,56.198695,15.654748,
740000664,Lövstabruks Herrgård,60.408183,17.879254,
740000665,Norrtälje busstation,59.759448,18.699230,
740000666,Rimbo busstation,59.743663,18.368648,
740000667,Sigtuna busstation,59.617423,17.723121,
740000668,Söderfors Bruksskolan,60.386439,17.234940,
740000669,Lit station,63.318412,14.857038,
740000670,Österbybruk bussterminal,60.196912,17.898445,
740000671,Östervåla busstation,60.180473,17.180280,
740000672,Östhammar busstation,60.258395,18.369976,
740000673,Hallstahammar station,59.615895,16.219421,
740000674,Heby station,59.940509,16.852955,
740000675,Kolsva centrum,59.600061,15.842474,
740000676,Kungsör station,59.427352,16.101250,
740000677,Kvicksund station,59.450883,16.320489,
740000678,Norberg busstation,60.064818,15.925293,
740000679,Ransta station,59.810003,16.640097,
740000680,Skultuna,59.718672,16.428960,
740000681,Sätrabrunn,59.864099,16.433782,
740000682,Tärnsjö centrum,60.153482,16.927456,
740000683,Vad station,60.032323,15.642321,
740000684,Valskog centrum,59.442562,15.949151,
740000685,Västerfärnebo,59.944457,16.280002,
740000686,Stavre station,62.829666,15.304981,
740000687,Bro station,59.511422,17.635910,
740000688,Torpshammar station,62.473403,16.334473,
740000689,Kebnats/Saltoluokta,67.416560,18.545148,
740000690,Ekerö centrum,59.290194,17.809957,
740000692,Farsta Strand station,59.236536,18.101664,
740000693,Fisksätra station,59.294156,18.256648,
740000694,Gnesta station,59.048540,17.312685,
740000695,Grisslehamn färjeläge,60.099231,18.813654,
740000697,Gällstad,57.667492,13.432863,
740000698,Gustavsberg centrum,59.326524,18.391289,
740000699,Handen station,59.167568,18.134469,
740000701,Helenelund station,59.409635,17.961531,
740000702,Huddinge station,59.237274,17.980261,
740000703,Häggvik station,59.444372,17.932268,
740000704,Fors station,60.208269,16.314243,
740000705,Jakobsberg station,59.423414,17.832892,
740000706,Jordbro station,59.141501,18.125795,
740000707,Bergvik Bergviksbron,61.257953,16.834343,
740000708,Arlanda Norra station,59.651567,17.930643,
740000709,Järna station,59.093369,17.567246,
740000710,Kallhäll station,59.453239,17.805754,
740000713,Kårsta station,59.656785,18.267464,
740000714,Lidingö centrum,59.365071,18.132826,
740000715,Mölnbo station,59.047540,17.418171,
740000716,Mörby centrum T-bana,59.398709,18.036220,
740000717,Nacka station,59.306553,18.130056,
740000718,Norrviken station,59.458221,17.924300,
740000719,Nynäshamn färjeterminal,58.904692,17.955631,
740000721,Södertälje centrum station,59.192464,17.626858,
740000722,Sörforsa centrum,61.718796,16.968218,
740000723,Jonstorp centrum,56.227087,12.674150,
740000725,Vålberg Norsplan,59.395098,13.194036,
740000726,Jäckvik affären,66.389811,16.964103,
740000727,Nynäshamn station,58.900796,17.952821,
740000730,Orminge centrum,59.325060,18.258434,
740000732,Skillinge busstation,55.473407,14.278388,
740000734,Alunda bussterminal,60.062732,18.080406,
740000735,Björklinge Sätunavägen,60.031763,17.552183,
740000736,Morgongåva station,59.932843,16.961624,
740000737,Örsundsbro centrum,59.733865,17.307790,
740000738,Hälleforsnäs station,59.161720,16.504188,
740000739,Rosersberg station,59.583376,17.879866,
740000740,Roslags Näsby station,59.435495,18.057891,
740000742,Gärsnäs station,55.546517,14.181024,
740000744,Vejbystrand centrum,56.315075,12.769225,
740000745,Arild Bussplatsen,56.273154,12.577159,
740000746,Bara Banvägen,55.579644,13.191055,
740000747,Ekeby Flamman,55.992159,12.972904,
740000748,Rönninge station,59.193607,17.749429,
740000749,Pello Pellohallen,66.801875,23.976119,
740000750,Brantevik,55.513940,14.347710,
740000751,Saltsjöbaden station,59.279019,18.313032,
740000753,Vallsta station,61.517530,16.367728,
740000755,Södra Möckleby,56.356463,16.420155,
740000756,Ljungbyholm busstation,56.633262,16.173372,
740000757,Skogås station,59.218174,18.154294,
740000758,Sollentuna station,59.428849,17.948037,
740000759,Solna station,59.365103,18.010037,
740000760,Trekanten västra,56.700702,16.111344,
740000761,Sorunda Spångbro,59.008346,17.805506,
740000762,Ålem station,56.946951,16.384572,
740000763,Fjärås station,57.435527,12.155125,
740000764,Spånga station,59.383269,17.898784,
740000765,Stockholm södra station,59.314171,18.064494,
740000767,Bua skola,57.236735,12.128031,
740000769,Åsa centrum,57.351896,12.121278,
740000770,Frillesås skola,57.318660,12.182415,
740000771,Holmsjö station,56.420436,15.543973,
740000772,Stuvsta station,59.253223,17.995742,
740000773,Sundbyberg station,59.361035,17.970936,
740000774,Trångsund station,59.228003,18.129563,
740000775,Tullinge station,59.205218,17.903075,
740000776,Tumba station,59.199733,17.835657,
740000777,Tungelsta station,59.102421,18.044859,
740000778,Tyresö centrum,59.244145,18.229233,
740000779,Täby centrum station,59.444043,18.074012,
740000781,Ulriksdal station,59.380749,18.000264,
740000782,Upplands Väsby station,59.521851,17.899625,
740000783,Vallentuna station,59.533345,18.079815,
740000785,Väddö kyrka,59.987843,18.810328,
740000786,Värmdö kyrka,59.357155,18.496591,
740000787,Västerhaninge station,59.122920,18.102616,
740000788,Åkersberga station,59.479170,18.298444,
740000789,Älvsjö station,59.278737,18.011067,
740000790,Ösmo station,58.984694,17.902562,
740000791,Östertälje station,59.184408,17.660023,
740000793,Fjugesta Nygatan,59.175451,14.874444,
740000794,Hasselfors Torget,59.085245,14.651962,
740000795,Odensbacken Odenskolan,59.157781,15.526725,
740000796,Pålsboda Norra Bangatan,59.064606,15.340808,
740000798,Vintrosa Tomta,59.257557,14.961173,
740000799,Åsbro Björkallén,58.981847,15.049825,
740000800,Björneborg Folkets Park,59.241774,14.237892,
740000802,Bograngen,60.703111,12.594958,
740000803,Edsvalla busstation,59.435842,13.211029,
740000805,Ekshärad Centrum,60.176223,13.495596,
740000806,"Gräsmark, Kyrkan",59.946074,12.912094,
740000808,Höljes Handel,60.898432,12.597207,
740000811,Koppom Torget,59.707053,12.150534,
740000813,Stora Levene station,58.325975,12.925671,
740000814,Lesjöfors Konsum,59.977338,14.184011,
740000815,"Molkom, Stationen",59.605385,13.725421,
740000816,Nykroppa station,59.623839,14.307434,
740000818,"Nysäter, Petters väg",59.282534,12.774241,
740000819,Skara Sommarland,58.401419,13.550244,
740000820,Skoghall Centrum,59.323286,13.465144,
740000821,Stöllet Riksväg 62,60.410653,13.272473,
740000822,"Svaneholm, Centrumkiosken",59.179167,12.551784,
740000828,Sysslebäck Centrum,60.730290,12.870977,
740000829,Tidan,58.572668,14.004737,
740000830,"Värmlandsbro, Centrum",59.183081,13.013094,
740000831,Östmark,60.278760,12.765208,
740000832,Kinnarp,58.074428,13.520774,
740000833,Malmköping Busstation,59.134727,16.724694,
740000834,Stångby station,55.751151,13.200201,
740000835,Billdal,57.577695,11.941074,
740000836,Stigtomta Tängsta,58.804166,16.781793,
740000837,Trosa centrum,58.897520,17.549916,
740000838,Lima Ungärde,60.936723,13.360419,
740000839,Vingåker station,59.042182,15.874079,
740000841,Arkösund,58.490111,16.936278,
740000842,Erikslund station,62.527972,15.922827,
740000843,Gryt,58.187157,16.801979,
740000844,Gusum centrum,58.265045,16.497310,
740000845,Horn torget,57.898359,15.838523,
740000846,Kimstad kyrka,58.540647,15.973350,
740000847,Kolmårdens Djurpark,58.666171,16.465624,
740000848,Krokek Sandviken,58.660992,16.400914,
740000849,Linghem station,58.436693,15.787191,
740000850,Ljungsbro busstation,58.508604,15.501831,
740000852,Särö Annelundsvägen,57.511783,11.950311,
740000853,Norsholm centrum,58.506226,15.973049,
740000855,Rejmyre vändplats,58.831964,15.915326,
740000856,Skärblacka Strömporten,58.581293,15.908770,
740000857,Mollösund östra,58.074045,11.477701,
740000858,Hälleviksstrand brygga,58.123091,11.443692,
740000859,Stora Höga station,58.018318,11.835509,
740000860,Hönö Pinan färjeläge,57.698616,11.666327,
740000861,Öckerö färjeläge,57.710717,11.658427,
740000862,Sommen station,58.139088,14.967237,
740000863,Idre Fjäll,61.889753,12.832185,
740000865,Landvetter resecentrum,57.686125,12.213168,
740000866,Björkbacken,58.656295,15.999347,
740000868,Vikingstad station,58.383169,15.431973,
740000869,Vreta kloster kyrka,58.481743,15.521606,
740000870,Åby centrum,58.664692,16.181375,
740000871,Österbymo busstation,57.823430,15.277416,
740000872,Östra Husby centrum,58.575847,16.566162,
740000873,Arjeplog busstation,66.052498,17.896229,
740000874,Boda Kyrkby,61.011687,15.211871,
740000875,Hakkas,66.914696,21.563216,
740000876,Jukkasjärvi kyrkan,67.846730,20.619439,
740000877,Kalix busstation,65.854356,23.142161,
740000878,Karesuando busstation,68.441365,22.478911,
740000879,Rönnäng brygga,57.935533,11.575781,
740000880,Korpilombolo busstation,66.848889,23.062349,
740000881,Kvikkjokk kyrkan,66.951691,17.721015,
740000882,Furudal ishallen,61.170828,15.138266,
740000883,Malmberget busstation,67.175410,20.657161,
740000884,Nikkaluokta fjällanläggning,67.850692,19.015163,
740000885,Pajala busstation,67.210854,23.365728,
740000886,Ritsem fjällstation,67.722285,17.469648,
740000887,Råneå busstation,65.856257,22.290257,
740000888,Svanstein skolan,66.651643,23.858727,
740000892,Tärendö Macken,67.152723,22.636186,
740000893,Burgsvik Stationsvägen,57.032786,18.274383,
740000895,Töre busstation,65.912916,22.645764,
740000901,Ljugarn,57.330197,18.708118,
740000903,Karbenning station,60.036608,16.072810,
740000904,Vittangi busstation,67.677646,21.638050,
740000906,Överkalix busstation,66.326249,22.837097,
740000907,Ankarsrum station,57.699892,16.334499,
740000909,Böda,57.250394,17.056773,
740000913,Visby busstation,57.635983,18.295947,
740000917,Klintehamn Konsum,57.387360,18.204806,
740000918,Roma pressbyrån,57.505331,18.454676,
740000921,Gunnebo Centrum,57.719996,16.532132,
740000922,Lärbro,57.785312,18.789815,
740000923,Högsby station,57.165753,16.027810,
740000924,Stenstorp station,58.273669,13.714795,
740000926,Loftahammar,57.906581,16.697012,
740000927,Löttorp centrum,57.166766,16.993183,
740000928,Mörbylånga Busstation,56.527847,16.376319,
740000929,Orrefors skola,56.838522,15.749592,
740000930,Lyckeby,57.067935,15.150507,
740000932,Torsås Torg,56.412178,15.997492,
740000933,Virserum Nya torget,57.315029,15.585065,
740000934,Billeberga station,55.884037,12.995611,
740000935,Billesholm station,56.056491,12.976632,
740000936,Bjärred centrum,55.722580,13.027383,
740000937,Burlöv station,55.640814,13.079966,
740000938,Dalby busstation,55.664498,13.346420,
740000939,Dösjebro station,55.822936,13.031625,
740000940,Falsterbo Strandbad,55.394088,12.851237,
740000941,Gunnesbo station,55.726205,13.168111,
740000942,Hjärup station,55.674153,13.136509,
740000943,Höganäs Busstorget,56.201057,12.558367,
740000944,Höllviken centrum,55.418596,12.952680,
740000945,Kävlinge station,55.794431,13.111423,
740000946,Köpingebro station,55.457222,13.935640,
740000947,Lomma busstation,55.673870,13.069032,
740000948,Mölle busstation,56.282001,12.499110,
740000949,Sjöbo busstation,55.630720,13.700967,
740000950,Skanör centrum,55.411504,12.844171,
740000951,Staffanstorp Storgatan,55.640794,13.206075,
740000952,Stehag station,55.900810,13.394854,
740000953,Malmö Airport Sturup flygplats,55.540431,13.365980,
740000954,Bygdeå Centrum,64.064033,20.859835,
740000955,Svalöv Centrum,55.912951,13.106371,
740000956,S Sandby busstation,55.717238,13.346829,
740000957,Veberöd centrum,55.633315,13.493413,
740000958,Vellinge centrum,55.472978,13.020445,
740000959,Viken centrum,56.146509,12.579249,
740000960,Åkarp station,55.657431,13.108150,
740000961,Örtofta station,55.778928,13.243974,
740000962,Björköby station,57.520811,14.917796,
740000963,Bodafors station,57.504106,14.693294,
740000964,Bruzaholm station,57.641488,15.274991,
740000965,Fröslida,56.875490,13.046079,
740000966,Hillerstorp station,57.313921,13.883077,
740000967,Hjältevad station,57.629044,15.343667,
740000969,Gunnarn E12 byn,65.006699,17.678196,
740000973,Slite centrum,57.704154,18.801056,
740000974,Stensjön station,57.582515,14.822907,
740000976,Åled vägkors,56.743491,12.950687,
740000977,Bankeryd station,57.860903,14.128985,
740000980,Billingsfors station,58.981838,12.249730,
740000981,Björketorp station,57.427690,12.523472,
740000982,Brålanda E45,58.557507,12.356447,
740000985,Dalsjöfors folkets park,57.717504,13.118812,
740000986,Färgelanda centrum,58.568389,11.995537,
740000987,Gustavsfors affär,59.190917,12.109985,
740000989,Håverud Akvedukten station,58.820623,12.408932,
740000995,Lilla Edet busstation,58.134254,12.125484,
740000996,Länghem,57.602424,13.244297,
740000997,S:t Peders väg,58.028903,12.152827,
740000998,Hemse busstation,57.237875,18.379694,
740000999,Sjuntorp Torg,58.196423,12.223956,
740001000,Blomstermåla station,56.980595,16.332629,
740001001,Anjan,63.712245,12.629578,
740001002,Baskemölla Gladsaxevägen,55.590477,14.312070,
740001003,Knutby skola,59.911749,18.267760,
740001004,Ottenby gård,56.234466,16.416090,
740001005,Visingsö Färjeläge,58.032156,14.351646,
740001006,Abbekås,55.394087,13.593690,
740001007,Adelsö kyrka,59.359548,17.529895,
740001008,Almunge skola,59.866970,18.071933,
740001009,Alvastra vägskäl,58.301223,14.670661,
740001010,Arkelstorp affären,56.173219,14.282975,
740001011,Aspedalen station,57.763095,12.259109,
740001012,Aspen station,57.754464,12.241380,
740001013,Astrid Lindgrens Värld station,57.674994,15.842531,
740001014,Avesta busstation,60.143731,16.167434,
740001015,Backaryd,56.347767,15.153212,
740001016,Basthagen station,58.205572,15.974359,
740001017,Bergby,60.928393,17.039772,
740001018,Bergs slussar,58.484767,15.525061,
740001020,Östersjö brygga,59.833759,19.077646,
740001021,Bromskär brygga,59.626158,18.988299,
740001022,Blomberg station,58.540345,13.320699,
740001023,Backlura Växthusvägen,59.385888,17.824949,
740001024,Bor station,57.115881,14.169407,
740001026,Borrby busstation,55.456286,14.177465,
740001027,Bottnaryd skola,57.773024,13.825483,
740001028,Brandstorp,58.096768,14.205234,
740001029,Branäs,60.659928,12.967288,
740001034,Bydalen,63.102556,13.800819,
740001035,Bårslöv Snödroppegatan,56.009072,12.811132,
740001036,Dalarö Hotellbryggan,59.129654,18.406397,
740001037,Hesselby Jvg stn,57.544950,18.533370,
740001038,Djursholms Ösby station,59.397982,18.058659,
740001039,Överby brygga,59.360762,18.647454,
740001040,Docksta busstation,63.054625,18.326529,
740001041,Drottningholm,59.323747,17.889711,
740001042,Edsbro centrum,59.896512,18.495065,
740001044,Eldsberga Gullbrannavägen,56.596003,12.974908,
740001045,Enviken busstation,60.808121,15.758625,
740001047,Fegen,57.105666,13.037679,
740001048,Filsbäck station,58.493322,13.247341,
740001049,Fjärdhundra centrum,59.777635,16.927467,
740001050,Fornåsa,58.478283,15.229099,
740001051,Forshem station,58.617971,13.491438,
740001052,Näsbypark station,59.430555,18.096146,
740001053,Salem centrum,59.201309,17.767512,
740001054,Framnäs City station,58.508464,13.147020,
740001055,Fredrika,64.075242,18.407608,
740001057,Fryksås vägskäl,61.192701,14.536321,
740001058,Fröjel,57.332216,18.191543,
740001059,Fröseke,56.948557,15.791113,
740001060,Furusund färjeläge,59.663090,18.925365,
740001061,Furuvik station,60.651196,17.331801,
740001062,Fågelmara,56.259991,15.949019,
740001063,Färentuna kyrka,59.392165,17.655267,
740001064,Gammelgarn,57.404603,18.803220,
740001065,Garde,57.314731,18.581375,
740001067,Glanshammar kyrka,59.318537,15.400475,
740001068,Glimåkra busstation,56.305180,14.135639,
740001069,Glommersträsk Finnbergs,65.260948,19.633937,
740001070,Glumslöv Ålabodsvägen,55.941502,12.812014,
740001071,Granö Centrum E12,64.247261,19.317584,
740001072,Grönhögen,56.268585,16.401413,
740001073,Gullbranna,56.586238,12.945548,
740001075,Hallabro,56.389503,15.102548,
740001076,Hallen,63.175745,14.094255,
740001077,Hanaskog Busstation,56.158637,14.094008,
740001078,Hargshamn Stationsvägen,60.168160,18.471684,
740001079,Hasslerör station,58.750398,13.939656,
740001080,Havdhem,57.159974,18.332301,
740001081,Hedenäset Gamla Affären,66.233737,23.679446,
740001082,Hemmesta vägskäl,59.326254,18.502495,
740001083,Hittarp Sundsliden,56.096888,12.643564,
740001084,Hovslätt station,57.735070,14.124219,
740001085,Hummelsta centrum,59.625832,16.943564,
740001086,Hörle station,57.259338,14.053682,
740001088,Immeln,56.203403,14.246536,
740001089,Indal,62.578812,17.095791,
740001090,Ingarö kyrka,59.288170,18.408689,
740001091,Ihre,57.831751,18.609073,
740001092,Järlåsa skola,59.887876,17.200443,
740001093,Järnforsen station,57.407825,15.620126,
740001095,Abborrträsk Konsum,65.449108,19.386455,
740001096,Almnäs,59.173634,17.522713,
740001097,Anderslöv torget,55.438243,13.317278,
740001098,Beddingestrand Granhyddan,55.364056,13.430750,
740001100,Björksele,64.987217,18.515327,
740001101,Björkvik,58.839458,16.514669,
740001102,Björnrike vändslinga,62.411812,13.920417,
740001103,Björnsholm,57.951014,16.441863,
740001104,Bokenäs skola,58.292867,11.580940,
740001105,Bromma flygplats,59.355440,17.946469,
740001106,Sundby,59.562396,18.240944,
740001107,Bäl bygdegård,57.644887,18.633682,
740001109,Donsö,57.599771,11.793981,
740001110,Tuna,59.253443,17.490541,
740001111,Ekeby Almby,59.259631,15.338835,
740001113,Evertsberg,61.134337,13.955261,
740001114,Fiskarheden busstation,61.070244,13.329924,
740001115,Forsmarks kvarn,60.368873,18.152007,
740001116,Funbo kyrka,59.854990,17.859693,
740001117,Gargnäs,65.313181,17.963196,
740001118,Gesunda,60.886049,14.545009,
740001120,Gottröra kyrka,59.739082,18.159985,
740001121,Grangärde torget,60.261980,14.977793,
740001122,Gräsö färjeläget,60.346553,18.461771,
740001123,Gullholmen Hamnen,58.179127,11.404041,
740001124,Gyttorp torget,59.505869,14.965514,
740001125,Skälåker,59.095248,18.317912,
740001127,Götlunda Fårtallen,59.353132,15.665525,
740001128,Hablingbo affär,57.185623,18.246884,
740001129,Hallinden,58.458410,11.522597,
740001130,Hanö brygga,56.009999,14.836386,
740001131,Hejde Tass,57.413013,18.351754,
740001132,Herräng bruk,60.131496,18.646027,
740001133,Jung Preem,58.329684,13.132480,
740001134,Kallsedet,63.701467,12.957126,
740001135,Kappelshamn,57.852514,18.782062,
740001136,Kapellskär färjeterminal,59.721171,19.063293,
740001137,Stora Karby,59.559627,18.221757,
740001138,Katthammarsvik,57.433663,18.850242,
740001139,Kaxholmen centrum,57.851888,14.305444,
740001140,Stensele Bjursvägen E12,65.070707,17.139439,
740001142,Kristdala Torg,57.400737,16.197547,
740001143,Kräklingbo,57.445672,18.710764,
740001144,Hede station,57.513094,12.083577,
740001145,Kvillsfors station,57.403954,15.496793,
740001146,Kvänum busstation,58.299780,13.187049,
740001147,Kyrktåsjö,64.222696,15.903431,
740001149,Kåseberga,55.386742,14.065093,
740001150,Solsidan station,59.270923,18.295944,
740001151,Kungsberg,60.761438,16.454791,
740001152,Lagnö vändplats,58.352737,16.816132,
740001153,Täby Kyrkby station,59.492992,18.066205,
740001154,Lindholmen station,59.584158,18.109273,
740001155,Lummelundagrottan,57.735454,18.406789,
740001156,Långed,63.604000,19.671235,
740001157,Mittådalen,62.692120,12.672286,
740001158,Mullhyttan,59.151508,14.684703,
740001159,Skokloster slott,59.705397,17.623869,
740001160,Stöten hotellet,61.266745,12.887840,
740001163,Sörboda,61.104375,15.249889,
740001164,Vistinge,58.692118,15.922460,
740001166,Åbo,63.706600,12.351433,
740001167,Ålsten Ålstens gård Spårv,59.320597,17.952096,
740001168,Arninge Kundvägen,59.462803,18.132696,
740001169,Björknäs centrum,59.315140,18.229454,
740001170,Bollstanäs skola,59.501256,17.964052,
740001171,Brandbergen centrum,59.172788,18.169163,
740001173,Edsberg centrum,59.445017,17.968455,
740001174,Stockholm Frihamnen,59.341502,18.117975,
740001175,Grödby Trollsta vsk,59.053522,17.869104,
740001176,Livgardet,59.515177,17.769489,
740001177,Gribbylund centrum,59.462566,18.091149,
740001178,Huddinge sjukhus,59.222287,17.937440,
740001179,Karolinska sjukhuset norra,59.353035,18.032203,
740001180,Lännersta Ångbåtsvägen,59.305658,18.255333,
740001181,Nockeby Spårv,59.328643,17.918566,
740001182,Lindholmen,58.874861,17.791694,
740001183,Värsås,58.353885,14.049328,
740001186,Pershagen Hagkärrsvägen,59.152833,17.657178,
740001187,Skälby Skillingvägen,59.391421,17.849589,
740001188,Sköndal centrum,59.255873,18.113644,
740001189,Gunsta,59.855458,17.832342,
740001190,Läby södra,60.086870,17.551340,
740001191,Äspskärs brygga,60.301680,18.589796,
740001192,Örskärssund,60.503870,18.389678,
740001198,Nybrostrand badet,55.432209,13.947299,
740001199,Ven Bäckviken,55.903825,12.722206,
740001200,Nord-Koster Västra bryggan,58.893080,11.009994,
740001202,Asperö östra,57.649260,11.807272,
740001203,Brännö Husvik,57.635351,11.766756,
740001204,Köpstadsö,57.625190,11.809553,
740001205,Lilla Varholmen,57.708572,11.702336,
740001206,Göteborg Saltholmens Brygga,57.660968,11.843078,
740001207,Dyrön södra,57.925761,11.618310,
740001208,Otterstad,58.654213,13.163942,
740001209,Kolsnäs station,59.825754,13.140985,
740001210,Brattheden station,59.798931,16.172892,
740001213,Styrsö Bratten,57.616015,11.794600,
740001214,Adolfström,66.278088,16.650630,
740001215,Stora Sjöfallet,67.482191,18.356515,
740001216,Kälarne parken,62.980641,16.085316,
740001218,Käringön,58.112977,11.365960,
740001219,Köpingsvik kyrka,56.879252,16.718494,
740001220,Köpmanholmen bussgaraget,63.170015,18.591487,
740001221,Laisvall,66.130906,17.164789,
740001222,Landsbro busstation,57.369478,14.900366,
740001223,Lansjärv Folkets hus,66.658311,22.174436,
740001225,Lekeryd affären,57.773913,14.418836,
740001226,Liden skola,62.701571,16.800961,
740001230,Liseberg station,57.698248,11.995269,
740001231,Ljunghusen Storvägen,55.405539,12.920899,
740001232,Ljusterö färjeläge,59.541787,18.591126,
740001233,Lovene station,58.440199,13.046755,
740001234,Lunnarp station,55.541224,14.041921,
740001236,Långflon,61.046242,12.595969,
740001237,Länna macken,59.876961,17.964677,
740001238,Löderup centrum,55.438137,14.113064,
740001239,Lövestad station,55.653605,13.891426,
740001240,Medevi Brunn,58.674218,14.958661,
740001242,Mellbystrand,56.514332,12.949817,
740001243,Messlingen Busks väg,62.663320,12.861414,
740001247,Sjöängen,59.391489,17.536287,
740001248,Muskö Hyttan,59.020353,18.185326,
740001249,Myggenäs korsväg,58.056907,11.760938,
740001250,Myresjö bstn,57.382403,14.960268,
740001251,Myrviken Centrum,62.999007,14.338750,
740001252,Målsryd centrum,57.682568,13.052789,
740001253,Månkarbo gångtunneln,60.226566,17.464837,
740001254,Månsarp station,57.654651,14.070496,
740001255,Mörarp station,56.055746,12.873240,
740001256,Nedre Soppero kiosken,68.047259,21.762534,
740001257,Nogersund hamn,56.005379,14.738154,
740001258,Nordingrå Vallen,62.930650,18.294999,
740001259,Norrskedika norra,60.288145,18.286318,
740001260,Norråker,64.435539,15.593298,
740001261,Norsesund station,57.861591,12.439031,
740001262,Olshammar Bocksmovägen,58.756400,14.797584,
740001264,Ornäs kiosken,60.510183,15.541039,
740001266,Ottsjö,63.215640,13.060310,
740001267,Oxberg,61.116726,14.174230,
740001268,Persberg station,59.748951,14.237542,
740001269,Ramkvilla,57.204086,14.952917,
740001270,Ramlösa station,56.023359,12.727952,
740001271,Ramsberg kiosken,59.768313,15.296684,
740001272,Ransby,60.675999,12.946832,
740001273,Ransäter kyrka,59.770803,13.449843,
740001275,Ytterby,59.429013,18.335859,
740001276,Rindö Smedja,59.403502,18.364709,
740001277,Rocksjön station,57.775440,14.198487,
740001278,Rosvik Rosån,65.435930,21.690383,
740001279,Ryssby Storgatan,56.865005,14.165953,
740001280,Råbäck station,58.610603,13.376367,
740001282,Rånäs Långsjö torg,59.804294,18.299740,
740001283,Rämshyttan Turistgården,60.317566,15.206542,
740001284,Rönnöfors,63.656074,13.828694,
740001285,Rörbäcksnäs,61.128940,12.813755,
740001286,Rörvik Västra Torggatan,57.238188,14.573757,
740001287,Röstånga busstation,56.003284,13.289605,
740001288,Sankt Anna väg 210,58.348767,16.706819,
740001290,Sannarp station,56.686237,12.892791,
740001291,Saxnäs,64.970583,15.343643,
740001292,Segeltorp centrum,59.279461,17.942820,
740001293,Sibbhult busstation,56.267603,14.201166,
740001294,Ellan vändplan,60.207158,18.738123,
740001297,Skattkärr skolan,59.412445,13.671214,
740001298,Skattunge handel,61.186320,14.857484,
740001299,Skebobruk norra,59.968976,18.605615,
740001300,Skogsby centrum,56.629222,16.512594,
740001301,Skruv Mejerigatan,56.676562,15.365976,
740001302,Skåne-Tranås väg 19,55.614554,13.996757,
740001303,Österskär station,59.460874,18.311723,
740001305,Skärplinge torg,60.472422,17.759100,
740001307,Smedstorp station,55.549566,14.117546,
740001308,Solberg ICA,63.787928,17.641933,
740001309,Sollenkroka brygga,59.372981,18.698759,
740001310,Spenshult Övre,56.850049,13.017456,
740001311,Sproge,57.263483,18.206543,
740001312,Stavsnäs vinterhamn,59.286406,18.704695,
740001313,Stenhamra Solbacka,59.340856,17.695664,
740001314,Steninge,56.763107,12.633922,
740001315,Stenkullen station,57.791797,12.314748,
740001316,Stenkyrka,57.799429,18.513183,
740001318,Stockaryd station,57.313080,14.591881,
740001319,Stora Mellösa,59.208943,15.499857,
740001320,Stora Vika Marsta,58.952721,17.790693,
740001321,Storsjö,62.800881,13.053552,
740001322,Stråssa,59.739331,15.194187,
740001323,Strömsfors vägskäl,58.687092,16.343146,
740001324,Stånga busstation,57.281236,18.471977,
740001325,Roslagskulla kyrka,59.559342,18.559060,
740001327,Svappavaara Konsum,67.646356,21.049542,
740001328,Svartå Tallstigen,59.130622,14.516937,
740001329,Sågmyra Tidstrandsvägen,60.712738,15.294166,
740001330,Sävenäs station,57.724781,12.025317,
740001331,Söderbykarl norra,59.899623,18.703679,
740001332,Sörbygden,62.793661,16.213156,
740001333,Dingtuna station,59.571784,16.389761,
740001334,Sösdala station,56.036273,13.680426,
740001336,Tannefors station,58.400474,15.659234,
740001337,Tanumshede centrum,58.722321,11.320886,
740001338,Tavelsjö Bygdegården,64.039678,20.069202,
740001339,Taxinge,59.242321,17.304663,
740001340,Tibble torg,59.485036,17.733281,
740001341,Timmernabben centrum,56.971010,16.438136,
740001342,Tingstäde,57.734137,18.607056,
740001345,Tobo station,60.258366,17.636107,
740001348,Torved station,58.825604,14.100108,
740001349,Ankarudden brygga,58.801242,17.835763,
740001350,Transtrand Stinas kiosk,61.092694,13.318859,
740001351,Trollbäcken centrum,59.223863,18.201848,
740001352,Trolmen station,58.594516,13.347531,
740001353,Ekerö Träkvista,59.275709,17.784825,
740001354,Tväråbäck samhälle,63.992042,19.724521,
740001355,Tvärålund E12,64.084225,19.627487,
740001356,Tylösand,56.647467,12.733338,
740001357,Tyresö Brevik Mossvägen,59.213307,18.379620,
740001358,Tånnö kyrka,57.090908,14.044430,
740001360,Töcksfors Centralen,59.508559,11.841411,
740001361,Uddeholm,60.023430,13.619355,
740001362,Ugglarp,56.817878,12.628389,
740001363,Ullatti OKQ8,67.015333,21.813987,
740001366,Vallvik,61.184545,17.179933,
740001367,Valsjöbyn,64.067129,14.141078,
740001370,Vemdalsskalet Hotell,62.482864,13.974012,
740001371,Vendelsö Sågen,59.199108,18.190362,
740001373,Vessigebro Stationsgatan,56.977637,12.650227,
740001374,Vidsel Renkronan,65.831650,20.520401,
740001375,Klostergården station,55.695278,13.172709,
740001376,Viksjö Skansen,62.787028,17.424114,
740001377,Vilshult,56.358201,14.481860,
740001378,Vindelgransele,65.108934,18.303660,
740001379,Sjömarken,57.715632,12.837299,
740001380,Vissefjärda station,56.538380,15.581421,
740001381,Vretstorp Stationsgatan,59.022302,14.866524,
740001382,Vrångö,57.570316,11.792007,
740001383,Vårsta centrum,59.165261,17.797362,
740001385,Vännäsby skola,63.913795,19.813767,
740001387,Västra Bodarne station,57.887777,12.474507,
740001388,Västra Husby kyrka,58.488983,16.180461,
740001389,Norrviken brygga,59.813150,18.984347,
740001390,Vagnsunda,59.579270,18.782795,
740001391,Zinkgruvan kiosken,58.815433,15.105857,
740001392,Åmmeberg kiosken,58.865445,14.999348,
740001394,Årsta brygga,59.082188,18.173398,
740001395,Åstol,57.924664,11.588990,
740001396,Älmsta busstation,59.970359,18.807023,
740001397,Älvros,61.795246,12.921218,
740001398,Äskekärr station,58.626269,13.608648,
740001399,Ätran,57.121809,12.948752,
740001400,Ölmbrotorp,59.390435,15.246332,
740001402,Östansjö Köpmangatan,59.044852,14.982377,
740001403,Österfärnebo,60.309567,16.797835,
740001404,Östergraninge,62.983169,17.181876,
740001405,Österäng station,58.633992,13.559734,
740001408,Övre Soppero Uno-X,68.090641,21.700782,
740001410,Stjerneskolan station,60.139273,13.011259,
740001411,Oleby station,60.129784,13.038366,
740001413,Ivarsbjörke station,59.959915,13.143643,
740001414,Ingmår station,59.878633,13.175411,
740001415,Edsbjörke station,59.902850,13.170742,
740001417,Öjervik station,59.773854,13.122847,
740001419,Frykåsen station,59.626075,13.184991,
740001422,Lene station,59.544094,13.122773,
740001426,Knalleland station,57.733726,12.942554,
740001428,Hållsta,59.291997,16.458561,
740001429,Bälgviken station,59.250376,16.459449,
740001432,Katterjåkk station,68.419392,18.163322,
740001436,Stordalen station,68.345422,19.064450,
740001437,Sjisjka station,67.624321,20.234583,
740001440,Ardala,58.360359,13.338154,
740001441,Ballingslöv station,56.214483,13.848897,
740001443,Nässjö Brinellskolan station,57.669628,14.702372,
740001444,Brohögen,58.955044,12.230491,
740001446,Dalfors,61.214658,15.404192,
740001447,Dalum Tingvallen,57.900999,13.469698,
740001448,Delabäcken,57.819395,12.201874,
740001449,Ekedalen,58.196645,13.842198,
740001450,Emmaljunga Hultahusvägen,56.398539,13.649435,
740001451,Barkåkra Valhall Park,56.284896,12.840100,
740001452,Fagersanna,58.468403,14.298311,
740001453,Fengersfors,58.994615,12.468588,
740001455,Fridafors Kyrkhultsvägen,56.407995,14.656612,
740001456,Frändefors Ödsmålavägen,58.498326,12.279631,
740001457,Frösakull,56.676730,12.729223,
740001459,Garsås rv 70,60.921934,14.826747,
740001460,Genarp busstation,55.599410,13.400181,
740001462,Grebo affären,58.305460,15.864647,
740001463,Grevie Förslövsvägen,56.389570,12.776690,
740001465,Enbacka Gustafs kyrka,60.412608,15.609415,
740001466,Hamburgsund Centrum,58.552387,11.273260,
740001467,Heberg södra,56.879199,12.629928,
740001468,Hedekas,58.644668,11.779818,
740001469,Hjällbo,57.768822,12.022729,
740001470,Hov Kyrkan,56.434760,12.729335,
740001471,Hurva E22,55.791679,13.442173,
740001472,Hästholmen,58.278698,14.648933,
740001473,Hörja skolan,56.206401,13.594879,
740001474,Igelstorp väg 49,58.401165,13.976274,
740001475,Katrinebergs folkhögskola,56.972579,12.634975,
740001477,Konga Postvägen,56.494892,15.119805,
740001478,Korrö,56.625549,15.195050,
740001479,Kvibille,56.782781,12.831962,
740001480,Kågeröd station,55.999484,13.083373,
740001481,Lidhult Torggatan,56.828091,13.436867,
740001482,Linneryd Granvägen,56.659239,15.129703,
740001483,Malmö Östervärn station,55.607450,13.032677,
740001484,Långshyttan centrum,60.452678,16.033548,
740001485,Långås,56.976208,12.450122,
740001486,Malmö Persborg station,55.580509,13.029042,
740001489,Nöbbele Solvalla,56.685109,15.036391,
740001490,Munka Ljungby Lindagatan,56.257614,12.962444,
740001492,Rådmansö kyrka,59.751575,18.948444,
740001493,Ränneslöv,56.453158,13.076118,
740001494,Rävemåla Affären,56.554755,15.266766,
740001495,Röke kyrka väg 24,56.234634,13.521586,
740001496,Sjövik busstation Lerum,57.914808,12.369180,
740001497,Skipås,56.780108,12.623009,
740001498,Skogstorp,56.913640,12.439217,
740001499,Sprängsviken väg 90,62.857305,17.870432,
740001500,Stenared,57.807483,12.186549,
740001501,Stigen centrum,58.566470,12.065630,
740001502,Stjärnsund herrgården,60.432921,16.215436,
740001503,Stoby Mäster Olofs väg,56.176511,13.829621,
740001504,Timmele,57.860810,13.430309,
740001505,Timmersdala,58.528675,13.759570,
740001506,Trädet,57.985633,13.535109,
740001507,Tösse station,58.972626,12.644348,
740001508,Berga,59.079993,18.132894,
740001509,Upperud slussen,58.814003,12.436390,
740001510,Valje Sissebäck,56.063190,14.547960,
740001511,Vallberga,56.468176,13.024138,
740001514,Vollsjö Piraten,55.702022,13.785715,
740001515,Vånga Kyrkan,56.180502,14.374515,
740001516,Våxtorp,56.416561,13.121663,
740001517,Väderstad kyrka,58.313275,14.924950,
740001518,Västra Karup affären,56.410984,12.745650,
740001519,Åsen kapellet,61.274388,13.824353,
740001522,Älgarås,58.810757,14.254852,
740001524,Älskogsbräcka,57.416734,11.953408,
740001525,Össjö skola,56.228024,13.036384,
740001527,Österslöv kyrka,56.099365,14.249733,
740001528,Östra Ljungby Busstationen,56.189774,13.065359,
740001537,Bergåsa station,56.182343,15.600866,
740001539,Vallkärra Stationsby,55.746377,13.145212,
740001541,Stockholm Citytermin Kungsbron,59.333166,18.054471,
740001542,Maria station,56.075927,12.711017,
740001543,Ödåkra station,56.104868,12.744744,
740001544,Kattarp station,56.144383,12.778428,
740001545,Kolmården station,58.675429,16.362600,
740001546,Malmö Svågertorp station,55.547199,12.990485,
740001547,Häljarp station,55.860902,12.911660,
740001548,Hofors Rondellen,60.541586,16.292019,
740001549,Avafors station,66.046237,22.286783,
740001550,Niemisel station,66.028614,21.995800,
740001552,Svenstavik centrum station,62.767166,14.436487,
740001553,Malmö Fosieby station,55.560215,13.030031,
740001554,Landskrona station,55.878897,12.857409,
740001555,Gantofta station,55.990493,12.805756,
740001556,Tågarp station,55.926547,12.952666,
740001557,Rydebäck station,55.965851,12.783584,
740001558,Glumslöv station,55.945610,12.812065,
740001559,Ljusne station,61.212915,17.111869,
740001560,Iggesund station,61.645630,17.081812,
740001563,Torsåker station,60.514148,16.489166,
740001564,Älvängen station,57.957819,12.116399,
740001567,Storå station,59.713610,15.143306,
740001568,Avesta centrum station,60.147611,16.166433,
740001569,Örnsköldsvik Norra station,63.303032,18.716104,
740001570,Örnsköldsvik Centralstation,63.289285,18.704305,
740001573,Mehedeby station,60.450117,17.400500,
740001578,Älvkarleby station,60.555264,17.427823,
740001579,Falkenberg station,56.919768,12.507559,
740001581,Umeå Östra station,63.817659,20.293450,
740001582,Hörnefors Resecentrum/Station,63.632659,19.908465,
740001583,Nordmaling Resecentrum/Station,63.578305,19.486285,
740001584,Husum station,63.343912,19.155725,
740001586,Malmö Hyllie station,55.563151,12.976928,
740001587,Malmö Triangeln station,55.593207,13.001471,
740001589,Västeraspby stn/Höga Kust flp,63.052711,17.744726,
740001590,Gamlestaden station,57.729152,12.004415,
740001591,Lödöse södra station,58.015070,12.163349,
740001600,Bohus station,57.851987,12.013644,
740001601,Surte station,57.825034,12.014509,
740001602,Kiruna station,67.867379,20.200509,
740001603,Båstad station,56.431835,12.906988,
740001604,Åsa station,57.363118,12.135635,
740001605,Killeberg station,56.474778,14.098365,
740001606,Önnestad station,56.060573,14.029126,
740001607,Fjälkinge station,56.043675,14.280686,
740001608,Bjärnum station,56.291440,13.706872,
740001609,Tvärålund station,64.097225,19.674597,
740001610,Kvidinge station,56.137223,13.046863,
740001611,Tjörnarp station,56.000318,13.629849,
740001612,Förslöv station,56.354246,12.800614,
740001613,Barkåkra station,56.287818,12.827822,
740001614,Ö Grevie station,55.467826,13.132637,
740001615,V Ingelstad station,55.490304,13.107897,
740001616,Marieholm station,55.864686,13.158998,
740001617,Stockholm City station,59.331141,18.059434,
740001618,Stockholm Odenplan station,59.342888,18.049998,
740001620,Kalix station,65.864988,23.142899,
740001621,Malmö Rosengård station,55.589598,13.031240,
740001622,Njurundabommen station,62.268358,17.377253,
740002953,Luleå Notviken station,65.612013,22.114765,
740003737,Frösakull Kronolund,56.671251,12.736607,
740004001,Åtvidaberg Östantorp,58.190433,16.012302,
740004003,Hestra,57.957340,15.068646,
740004004,Wisbygymnasiet,57.625976,18.293236,
740004005,Roma Lövsta,57.530619,18.438324,
740004008,Larsarve (Källunge),57.632272,18.586811,
740004009,Hejdeby,57.632449,18.444468,
740004014,Åminne,57.613887,18.756155,
740004015,Gothem affären,57.578717,18.730144,
740004016,Vallstena kyrka,57.610861,18.637884,
740004017,Källstäde,57.802085,18.821323,
740004019,Othems kors,57.750186,18.728105,
740004021,Loggarve,57.394905,18.263980,
740004023,Bunge kyrka,57.854232,19.026880,
740004027,Dalamon,58.263950,15.924173,
740004029,Bankekind vägkors,58.372431,15.813697,
740004030,Åtvidaberg centrum,58.200259,15.998584,
740004033,Brokind vägkors,58.212585,15.669045,
740004040,Stora Åby kyrka,58.240536,14.709872,
740004041,Heda,58.286907,14.702063,
740004044,Läppe,59.129877,15.809022,
740004046,Liljeholmen T-bana,59.310706,18.023130,
740004047,Tystberga trafikplats,58.856300,17.206641,
740004048,Kila kyrka,58.744982,16.549070,
740004050,Gripenberg station,57.991774,14.852548,
740004051,Adelöv Marknadsplatsen,58.012822,14.668019,
740004054,Dörarp kyrka,56.989577,14.005257,
740004055,Vittaryd Skolvägen,56.970715,13.944498,
740004057,Tannåker,56.957594,13.772154,
740004058,Bolmstad Bolmsö skola,56.950449,13.743960,
740004060,Grimstorp station,57.558104,14.697696,
740004064,Hult centrum,57.642408,15.130872,
740004065,Hultagård vägskäl,57.387777,14.789547,
740004066,Lindshammar Smultronstället,57.221116,15.144084,
740004067,Häradsbäck Knoxhultsvägen,56.529955,14.451022,
740004071,Virserum centrum,57.318653,15.582753,
740004075,Svenstorp,56.340355,12.928479,
740004076,Helsingborg Karbingatan,56.082984,12.734155,
740004078,Tåstarp Hjärnarpsvägen,56.281104,12.944644,
740004079,Margretetorp Gästis,56.336094,12.891514,
740004083,Klippan Åbyplan,56.136139,13.129084,
740004086,Nyvång Checkpoint,56.126934,12.915296,
740004087,Ausås Ausåsvägen,56.165934,12.888691,
740004089,Helsingborg Bergavägen,56.073720,12.715130,
740004090,Rösa,57.452784,15.160208,
740004096,Örkelljunga Hjälmsjö,56.272181,13.290681,
740004098,Hyllstofta,56.132748,13.296161,
740004108,Vanås slott,56.187644,14.048675,
740004110,Fjälkestad kyrka,56.107895,14.169595,
740004112,Balsby Brommagårdsvägen,56.077240,14.220670,
740004114,Åhus Åhusbryggan,55.938042,14.316032,
740004115,Åhus Äspetvägen,55.917409,14.288128,
740004116,Gärds Köpinge Idrottsplatsen,55.936382,14.152878,
740004117,Skepparslöv Kyrkan,56.013851,14.069374,
740004119,Ovesholm,55.993426,14.036617,
740004120,Djurröd,55.995931,13.884757,
740004121,Rickarum skolan,55.994229,13.822683,
740004128,Kiaby Affären,56.066750,14.330852,
740004130,Torsebro Färlövsvägen,56.100199,14.116371,
740004137,Dalhem,56.483038,14.185848,
740004144,Vitaby Hotellplan,55.684824,14.154255,
740004146,Eljaröd väg 19 Nyhem,55.695936,14.039379,
740004151,Vranarp Korset,55.527266,14.237548,
740004152,Hannas torget,55.493610,14.107219,
740004153,Gladsax centrum,55.562397,14.287267,
740004157,Östaröd,55.632956,14.175764,
740004159,Vitemölla Källebacken,55.696584,14.202414,
740004162,Vallby Affären,55.499710,14.203859,
740004166,Ekeröd,55.902817,13.732366,
740004167,Spjutstorp Henrik Olssons väg,55.581329,14.015477,
740004177,Oskarström Maredlid,56.811193,12.963424,
740004178,Oskarström Vrenninge,56.797326,12.989379,
740004180,Oskarström Bronsgatan,56.806871,12.962195,
740004181,Oskarström Centrum,56.801765,12.977108,
740004182,Skara Katedralskolan,58.388747,13.454919,
740004183,Falköping Sjukhuset,58.187339,13.554988,
740004185,Boamarken E20,58.561128,13.571432,
740004188,Lavad skola väg 44,58.419363,12.867981,
740004189,Häljestena väg 44,58.406828,12.830875,
740004190,Rudberga väg 44,58.372055,12.724300,
740004191,Grästorp Smedgatan,58.338797,12.685378,
740004192,Håberg,58.325445,12.582825,
740004197,Vargön Fyrkanten,58.356188,12.387647,
740004201,Bredöl,58.232913,12.723151,
740004202,Mellomgärdet,58.209333,12.575456,
740004211,Öboängen,58.614119,13.158776,
740004212,Ulleredsbro,58.626499,13.135003,
740004213,Lidköping Margretelund,58.494762,13.169039,
740004214,Öttum,58.322892,13.219724,
740004215,Malmgården,58.390416,13.431923,
740004218,Boterstena väg 26,58.595603,13.797600,
740004220,Annelund TA Östra,57.991000,13.092677,
740004221,Sjogerstad väg 46/48,58.320556,13.810274,
740004223,Baltak Kyrka,58.148105,13.932314,
740004224,Valstad,58.125516,13.812454,
740004225,Borgunda,58.292596,13.800814,
740004227,Kungslena,58.226989,13.807990,
740004228,Kavlåsbruket,58.216563,13.857401,
740004229,Varvboholm,58.195712,13.825990,
740004230,Furusjö Strandvägen,57.928345,13.960594,
740004232,Habo Kråkeryd,57.917294,14.084303,
740004234,Jönköping Cigarren,57.781376,14.185766,
740004235,Mullsjö Havstenshult,57.925680,13.896300,
740004237,Mullsjö folkhögskolan,57.906154,13.881917,
740004239,Vistorp,58.013080,13.693525,
740004240,Kättilstorp,58.041010,13.709761,
740004242,Kälvene väg 47,58.098309,13.724582,
740004243,Slöta,58.113979,13.624631,
740004244,Marka kyrka,58.158611,13.478571,
740004246,Baskarp,58.016707,14.144543,
740004247,Fagerhult (Habo kn),57.999122,14.119819,
740004248,Källebacken,58.656057,14.135582,
740004255,Karlsborg S Skogen väg 49,58.520972,14.506581,
740004256,Atterud,58.704076,14.036589,
740004259,Bahult,58.883933,14.294206,
740004260,Björsäter,58.656039,13.699902,
740004261,Kinneskogen,58.595714,13.632775,
740004262,Månstorp,58.604251,13.642638,
740004263,Bredsäter,58.636759,13.653303,
740004266,Aspa bruk,58.776944,14.797870,
740004268,Axbergshammar väg 50,59.423638,15.177046,
740004269,Ställberg Bönhusbacken,59.978797,14.924842,
740004270,Karlskoga Immetorp norra,59.322756,14.589835,
740004274,Sänna södra,58.792657,14.985559,
740004293,Härlöv,56.958842,14.638751,
740004296,Fjärestad Kyrka,55.985883,12.842869,
740004298,Lerberget,56.176060,12.563251,
740004302,Hällsbäck,59.386511,12.794941,
740004303,Hallebol,59.726574,12.274402,
740004304,Blomskog skolan,59.283376,12.031677,
740004306,"Töcksfors, Ståltorpsvägen E18",59.505880,11.860077,
740004308,"Charlottenberg, Vårdcent",59.883137,12.307120,
740004309,Strandsågen,59.454230,12.884295,
740004310,Degerbyn garageplats,59.449868,12.973312,
740004311,Forshaga Skived Konsum Närköp,59.520865,13.483340,
740004313,"Deje, Tjärnheden-vändplan",59.618217,13.449749,
740004314,Östra Deje,59.570382,13.517591,
740004316,"Eskilsäter, Kyrkan",58.938857,13.166809,
740004317,Frykenstrand,59.885821,13.139391,
740004319,Kil Runnevål,59.516078,13.308405,
740004320,Linnedal,59.614384,13.154317,
740004321,"Ambjörby, Tempo",60.497552,13.168934,
740004323,Kärrbackstrand,60.825762,12.689576,
740004326,Bjurtjärn prästgård,59.422909,14.353588,
740004327,Alkvettern korsväg,59.438982,14.403133,
740004328,Lunedet,59.403837,14.431263,
740004330,"Karlstad, Gruvplan",59.376472,13.460510,
740004334,Surahammar Nybyggsvägen,59.714327,16.236518,
740004335,Surahammar Köpmangatan,59.703788,16.222812,
740004339,Lillhärad vägskäl,59.662884,16.354654,
740004344,Kolsva vägförvaltning,59.609345,15.828633,
740004345,Bromölla Tiansgård,56.069223,14.477415,
740004348,Uttorp,56.091737,15.695107,
740004357,Mokorset,61.286566,16.840016,
740004358,Kungsfors,60.759684,16.534258,
740004361,Öreryd väg 26 norra,57.494711,13.681311,
740004365,Jäderfors Kärråsvägen,60.664573,16.691270,
740004383,Stockholm C Klarabergsviadukte,59.330733,18.057597,
740004386,Hablingbo Petes,57.192504,18.232049,
740004406,Auktsjaur E45,65.743162,19.393174,
740004409,Betsele E12,64.632432,18.555097,
740004414,Granberget (Dorotea),64.353606,16.680541,
740004421,Kåbdalis affären,66.144262,19.993925,
740004427,Liggavägen station,66.789858,19.884083,
740004447,Sörtjärn station,62.342711,14.629757,
740004450,Stornäs,65.032504,15.140775,
740004460,Vinlidsberg station,65.018864,17.062915,
740005882,Klavreström Majorsgatan,57.140391,15.134724,
740006000,Bergvik Ellervik,61.267683,16.841241,
740006002,Emböle,61.326076,16.764769,
740006003,Mo Engelska kanalen,61.309320,16.786319,
740006004,Flor,61.308630,16.762183,
740006005,Florsjö,61.303185,16.798109,
740006006,Florsjöbaden,61.305594,16.792716,
740006007,Mohed Flygfältet,61.287217,16.841660,
740006008,Mohed Kompanivägen,61.290903,16.827847,
740006010,Vannsätter Hagstigen,61.264593,16.793388,
740006011,Söderala Hammarvägen,61.278436,16.973727,
740006012,Söderala Hedbacka,61.282049,16.954167,
740006013,Söderala Heden,61.283854,16.948750,
740006014,Bergvik Högbacka,61.254606,16.829426,
740006015,Höljebro,61.241736,17.031930,
740006016,Höljebro kvarn,61.244074,17.025446,
740006017,Myskje Janas,61.277138,16.860403,
740006018,Askers Kanalvägen,61.211742,17.090961,
740006019,Bodarne Kapellet,61.288511,16.761982,
740006020,Onsäng Karmor Norra,61.248740,17.023559,
740006021,Onsäng Karmor Södra,61.247088,17.024575,
740006022,Mokorset Kilaforsvägen,61.287132,16.835241,
740006024,Kinsta Kinstabron väg 50,61.286486,16.921465,
740006026,Bergvik Klovheden,61.239904,16.828483,
740006028,Bergvik Kraften,61.261362,16.832162,
740006029,Kyrkbyn,61.295020,16.850574,
740006030,Söderala Källbacka,61.284716,16.942328,
740006031,Mohed Lars-Lars,61.300996,16.817464,
740006032,Bergvik Linden,61.260802,16.830243,
740006033,Marmaskogen Lindängen,61.279908,16.902696,
740006034,Bergvik Lynäs,61.243407,16.828075,
740006035,Långmyran,61.290733,16.765034,
740006036,Marmaverken station,61.272558,16.864295,
740006037,Marmaverken Marmaberget,61.272942,16.878235,
740006038,Myskje Marmavägen,61.281825,16.844989,
740006039,Mickelbergsvägen,61.249564,16.828052,
740006040,Mickelberget,61.247224,16.828888,
740006041,Mo,61.312891,16.787663,
740006042,Mo skola,61.312352,16.781411,
740006043,Mohed Mosebacke,61.296415,16.827616,
740006044,Mosne,61.255722,17.023643,
740006045,Myskje,61.280700,16.845436,
740006046,Kinsta Möller,61.285685,16.925018,
740006047,Ellne Norra,61.265826,17.002672,
740006048,Kinstagropen,61.284595,16.914609,
740006049,Kinsta Kinstabron/Marmavägen,61.285822,16.920434,
740006050,Nolhed,61.330026,16.756933,
740006051,Ängesberg Nordäng (Vannsätter),61.271196,16.776295,
740006052,Norrljusne,61.222729,17.061142,
740006053,Marmaverken Nybacka,61.275492,16.882554,
740006054,Näcktjärn,61.301403,16.808558,
740006055,Näcktjärn Norra väg 301,61.303276,16.807703,
740006056,Näset,61.299048,16.761855,
740006057,Mohed Ol-Ors,61.299201,16.816343,
740006058,Onsäng,61.249309,17.018122,
740006059,Per-Mats,61.332652,16.751073,
740006060,Ranbo,61.316331,16.782319,
740006061,Renskalla,61.236246,17.042518,
740006062,Mohed Reveljvägen,61.288157,16.830127,
740006063,Siggesta,61.277612,16.986040,
740006065,Korset Smedjan,61.291758,16.870780,
740006066,Tyby,61.290358,16.888883,
740006067,Sunnanhed,61.285381,16.930378,
740006068,Sågvallen,61.289018,16.945170,
740006070,Kinsta Tallbacken,61.286949,16.904359,
740006072,Mokorset Tomteboda,61.284762,16.847100,
740006073,Trädgården,61.259703,17.016025,
740006074,Valla,61.286528,16.978299,
740006075,Bergvik Variant,61.271867,16.843355,
740006076,Verkmyra,61.231612,16.833167,
740006077,Vreten,61.287082,16.855719,
740006078,Överbo Åkerslund,61.339181,16.733372,
740006079,Ljusne Åänge,61.207960,17.107347,
740006080,Onsäng Änkehemmet,61.250663,17.021323,
740006081,Östbo,61.308086,16.795501,
740006082,Vannsätter Österbacken,61.262848,16.801235,
740006084,Överbo,61.343263,16.724449,
740006085,Skärså Albertina,61.377279,17.101283,
740006086,Ale,61.369677,16.954460,
740006088,Altorp,61.359744,16.977316,
740006089,Arklo,61.359957,16.993159,
740006090,Berga,61.370388,16.898587,
740006091,Berge,61.408656,16.814858,
740006092,Boda,61.363252,16.921953,
740006093,Borg,61.338715,17.036428,
740006094,Brötgrind,61.350331,17.026175,
740006095,Daglösa,61.383718,16.879164,
740006096,Edvik,61.357105,17.049208,
740006097,Fly,61.373119,16.896120,
740006098,Kungsgården Forsgården,61.365901,16.944635,
740006099,Grubbe,61.445214,16.725365,
740006100,Hagaborg,61.332904,17.045765,
740006101,Hamre,61.355508,16.999028,
740006102,Hägnan,61.398537,16.829956,
740006103,Hällsätter,61.390370,16.854709,
740006104,Ingsta,61.358584,16.984900,
740006106,Kolsta,61.356801,17.021286,
740006107,Kungsgården,61.364388,16.947310,
740006108,Källene Västra,61.353882,17.006369,
740006109,Källene Östra,61.353089,17.010749,
740006110,Sven-Petters,61.389268,16.858021,
740006111,Långbro,61.380974,16.889041,
740006112,Långåker,61.362346,16.959651,
740006114,Glamsta Norråkern,61.394891,16.838614,
740006115,Nya borg,61.344757,17.031265,
740006116,Nygården,61.366296,16.933804,
740006117,Närby,61.368066,16.964499,
740006118,Orsten,61.388205,16.860755,
740006119,Rappsta,61.405220,16.823210,
740006120,Remsta,61.364507,16.975605,
740006121,Ringa,61.360841,16.969860,
740006122,Rönningen,61.431255,16.752180,
740006123,Siknäs,61.358876,16.999755,
740006124,Skensta,61.355954,17.034600,
740006125,Skenstaviken,61.346543,17.030288,
740006126,Skettene,61.358188,17.007580,
740006127,Snarböle,61.362392,16.983547,
740006128,Sterte,61.423811,16.779492,
740006129,Stertebacken,61.413341,16.803867,
740006131,Norrala-Sund,61.334871,17.071902,
740006133,Svartvik,61.360237,17.058026,
740006134,Kungsgården Åvägen,61.367042,16.949726,
740006135,Rönningen Sågvägen,61.425729,16.762148,
740006136,Boda Svarven,61.364254,16.915855,
740006137,Trönbyn Östra,61.386031,16.869139,
740006138,Trönbyn Västra,61.387311,16.864954,
740006139,Tygsta,61.410906,16.809164,
740006140,Varberg,61.343745,17.067346,
740006141,Långbro Östra,61.378823,16.895439,
740006142,Källvik Djupvik,61.281975,17.169866,
740006143,Forsbacka,61.314998,17.091282,
740006144,Forsbacka Västra,61.319879,17.083827,
740006145,Fridsbacka,61.311673,17.104942,
740006146,Klapparvik Norra,61.299464,17.141291,
740006147,Klapparvik Södra,61.296869,17.143270,
740006148,Källvik,61.283553,17.162809,
740006149,Söderhamn Lötån,61.325954,17.067602,
740006150,Klapparvik Malenedal,61.291523,17.148341,
740006151,Mamre vägskäl,61.301936,17.134528,
740006152,Mariehill,61.310070,17.116691,
740006153,Nyhem,61.323778,17.075769,
740006154,Sandviksudden,61.305664,17.128639,
740006155,Simpviken,61.280250,17.181577,
740006156,Fridsbacka Skagan,61.313849,17.098852,
740006157,Forsbacka Skolvägen,61.317327,17.086001,
740006158,Sofieholm,61.289014,17.153401,
740006159,Stenåker,61.308269,17.125650,
740006160,Söderhamn Abraham Bäckgatan,61.297255,17.062457,
740006161,Söderhamn Balder,61.303857,17.105682,
740006163,Söderhamn Björnänge,61.303621,17.038637,
740006164,Söderhamn Bohusvägen,61.294751,17.073961,
740006167,Söderhamn Bromsäng,61.298244,17.114518,
740006168,Söderhamn E-Center,61.295235,17.019016,
740006169,Söderhamn E-Center/Väg 50,61.296994,17.020092,
740006170,Söderhamn Enriset,61.313558,17.049313,
740006172,Söderhamn Ängsvägen,61.307013,17.046516,
740006173,Söderhamn Faxeholmen,61.305328,17.070656,
740006174,Söderhamn Flygbacken,61.291296,17.072982,
740006175,Söderhamn Fålnäs,61.306831,17.089306,
740006176,Söderhamn Kuriren,61.301293,17.039031,
740006178,Söderhamn Gamla IP,61.305685,17.048460,
740006179,Söderhamn Grundvik,61.295652,17.118963,
740006181,Söderhamn Hobacka,61.289653,17.014025,
740006182,Söderhamn Hägnavägen,61.321786,17.062150,
740006183,Söderhamn Hällmyran,61.284366,17.084584,
740006184,Söderhamn Hällåsen,61.291246,17.068690,
740006185,Söderhamn Härjedalsvägen,61.297632,17.073070,
740006187,Söderhamn Ina,61.289419,17.000847,
740006188,Söderhamn Klossdammen,61.297117,17.066705,
740006191,Söderhamn Källgatan,61.301872,17.052303,
740006192,Söderhamn Källparken,61.300275,17.053173,
740006193,Söderhamn Lillberget,61.311166,17.049760,
740006194,Söderhamn Lotsgatan,61.305395,17.109105,
740006196,Söderhamn Mossberget,61.315843,17.050598,
740006197,Söderhamn Marinvägen,61.300112,17.114391,
740006198,Söderhamn Nejlikan,61.306207,17.060053,
740006199,Söderhamn Norrberget,61.314469,17.043861,
740006201,Söderhamn Norrmyran,61.309935,17.044970,
740006202,Söderhamn Oden,61.306757,17.102778,
740006203,Söderhamn Stamvägen,61.311416,17.059645,
740006204,Söderhamn Oxen,61.301805,17.048811,
740006205,Söderhamn Blötängsvägen,61.294974,17.033074,
740006207,Söderhamn Aquarena,61.288919,17.070872,
740006208,Söderhamn Sjukhusentrén,61.296897,17.057461,
740006209,Söderhamn Sjukhuset,61.297910,17.058583,
740006210,Ljusne Alagården,61.217727,17.146687,
740006211,Söderhamn Skeppsgatan,61.302744,17.107614,
740006213,Söderhamn Stormyran,61.292546,17.073705,
740006214,Söderhamn Eriksgatan,61.304066,17.111962,
740006215,Söderhamn Milstensvägen,61.289369,17.002486,
740006217,Söderhamn Tälje,61.291869,17.046907,
740006218,Söderhamn Mjölnäsvägen,61.318210,17.062586,
740006219,Söderhamn Vågbroskolan,61.326031,17.061162,
740006220,Söderhamn Lötvägen,61.324359,17.061487,
740006221,Söderhamn Värmlandsvägen,61.294692,17.064854,
740006222,Söderhamn Västra vägen,61.327809,17.056246,
740006223,Söderhamn Växelgatan,61.305997,17.046737,
740006225,Söderhamn Åsbäcksgatan,61.307726,17.060748,
740006227,Ljusne Lumavägen,61.214422,17.141484,
740006228,Sandarne Alméns,61.263997,17.152777,
740006230,Sandarne Bolagsvägen,61.259585,17.139673,
740006232,Sandarne Bruksgården,61.259815,17.160854,
740006234,Sandarne Flisvägen,61.253530,17.174521,
740006235,Söderhamn Flygstaden,61.278373,17.093832,
740006236,Gammelsågen Södra,61.243527,17.149797,
740006237,Sandarne Hönsberget,61.254988,17.149876,
740006238,Sandarne Körsbärsvägen,61.261504,17.136250,
740006239,Sandarne skola,61.265469,17.156437,
740006240,Sandarne Lerviksberget,61.267183,17.155560,
740006241,Sandarne Lillvägen,61.268478,17.153435,
740006242,Ljusne Söder,61.204440,17.115890,
740006243,Ljusne Ljusnebron,61.209191,17.112738,
740006244,Vallvik Lönnvägen,61.184616,17.173727,
740006245,Lövskär,61.226916,17.160408,
740006246,Sandarne Nyhed,61.264088,17.125232,
740006247,Ljungvägen,61.262467,17.131333,
740006248,Sandarne Nyplan,61.260338,17.152508,
740006249,Sandarne Nyplanshallen,61.260288,17.148518,
740006250,Ljusne Bruksmuséet,61.213556,17.134636,
740006252,Sandarne Sandbacken,61.253985,17.137833,
740006253,Vallvik Latexia,61.184524,17.153382,
740006255,Vad Sjövik,61.284273,17.140944,
740006256,Åsbacka Skinn-Kalle,61.280526,17.145913,
740006259,Sandarne Särvvägen,61.257615,17.164598,
740006260,Storsjöbaden,61.243209,17.158314,
740006261,Långrör Trångsta,61.272886,17.152505,
740006262,Sandarne Tönshammar,61.255618,17.168556,
740006264,Vad,61.286116,17.136061,
740006265,Vadtorp,61.288864,17.132166,
740006266,Sandarne Växthusvägen,61.262083,17.152117,
740006268,Åsbacka,61.276659,17.150280,
740006269,Sandarne Östanbo skola,61.257102,17.135692,
740006276,Böle,61.182230,16.845223,
740006277,Böle Bölesbacken,61.176844,16.840790,
740006286,Kallbäck,61.161017,16.814003,
740006291,Lövtjära,61.189450,16.856339,
740006293,Lövtjära Norrbovägen,61.186194,16.851508,
740006294,Sagänge,61.111557,16.734898,
740006295,Holmsveden Skolbacken,61.114928,16.726315,
740006297,Stråtjära Villavägen,61.166341,16.841078,
740006298,Stråtjära Norra,61.171403,16.841076,
740006299,Stråtjära skola,61.167104,16.832815,
740006300,Stråtjära Trekanten,61.168647,16.842287,
740006301,Tönnånger,61.124336,16.786041,
740006302,Holmsveden Åkerbergsvägen,61.116114,16.724754,
740006303,Älgnäs,61.119440,16.777948,
740006304,Ljusne Ljusneborg,61.211521,17.125209,
740006305,Ljusne Svarvarvägen,61.213938,17.121216,
740006306,Ljusne Myrbacka,61.213424,17.116840,
740006307,Söderhamn Fritidsbanken,61.305013,17.063010,
740006308,Söderhamn Kanslivägen,61.273312,17.091835,
740006309,Söderhamn Kanslihuset,61.270533,17.091516,
740006310,Söderhamn Verkstadsv,61.270758,17.098964,
740006311,Söderhamn Vaktstugan,61.274395,17.094079,
740006312,Bergsänge,61.561430,16.338567,
740006313,Bogården,61.570877,16.455362,
740006315,Söderhamn Skytten,61.310838,17.040413,
740006316,Stråtjära Preem,61.165746,16.843697,
740006317,Norrala kyrka,61.360238,16.986645,
740006318,Söderhamn Hangarvägen,61.270617,17.094987,
740006319,Söderhamn Kasernvägen,61.272362,17.099235,
740006320,Ellne Södra,61.263069,17.007973,
740006321,Mo Getbacken,61.319210,16.777554,
740006324,Pumsen,61.219466,17.072254,
740006325,Edviksängarna,61.356475,17.044491,
740006326,Nyåker,61.338963,17.068125,
740006327,Söderhamn Färghuset,61.301393,17.036907,
740006329,Gammelsågen,61.246371,17.152638,
740006331,Djupa (Undersvik),61.598218,16.301467,
740006332,Vallstabyn Ersk-Jons,61.530368,16.368580,
740006333,Vallstabyn Ersk-Ols,61.528236,16.367677,
740006334,Hagmora,61.566978,16.433282,
740006335,Hans-Ers,61.630398,16.291176,
740006336,Vallsta Hov,61.513646,16.360876,
740006337,Hänsätter,61.527770,16.388982,
740006338,Bergsänget Kalles,61.572044,16.322732,
740006339,Undersvik Källyckan,61.611494,16.319922,
740006340,Lövvik,61.623857,16.313189,
740006341,Offerberg Nils-Pers,61.625676,16.299417,
740006342,Nordsjö,61.570726,16.502524,
740006343,Orbaden Norra,61.540709,16.359065,
740006344,Offerberg,61.624267,16.304372,
740006345,Offerberget,61.620038,16.290015,
740006346,Åmyrbäcken,61.508181,16.358487,
740006347,Orbaden,61.540690,16.363615,
740006348,Orfa,61.544120,16.354424,
740006349,Simeå Q-star,61.573936,16.318303,
740006350,Undersvik Rora,61.604554,16.313401,
740006351,Simeå Sidskogsvägen,61.579070,16.310801,
740006352,Simeå,61.576123,16.311656,
740006353,Simeå Norra väg 83,61.581203,16.316446,
740006354,Lövvik Skogs,61.621325,16.323440,
740006355,Stiftsgården,61.607749,16.320576,
740006356,Lövvik Tällby,61.623065,16.318662,
740006358,Orbaden Vilan,61.539374,16.367239,
740006359,Orfa Vinterstaden,61.547126,16.352239,
740006360,Orbaden väg 83,61.540848,16.357864,
740006361,Änga (Vallsta),61.538361,16.394745,
740006362,Östansjö,61.574909,16.544934,
740006363,Övre roren,61.608299,16.295485,
740006364,Arbrå kyrka,61.490753,16.374116,
740006365,Arbrå skola,61.479686,16.376655,
740006366,Bessbo,61.503090,16.357026,
740006367,Arbrå Bruks,61.475907,16.370562,
740006368,Arbrå Centralgatan,61.472415,16.377178,
740006369,Forneby,61.466271,16.419909,
740006370,Forsbro,61.475185,16.394848,
740006372,Haga,61.497811,16.364237,
740006373,Flästa Hanks,61.448925,16.445139,
740006374,Forsbro Östra Norrängevägen,61.473952,16.405838,
740006375,Arbrå Hälsocentralen,61.469967,16.374601,
740006376,Arbrå Koldemo,61.461530,16.379267,
740006377,Röste Korvgatan,61.398253,16.390330,
740006378,Kurland,61.500153,16.359810,
740006379,Arbrå Kyrkbyn,61.482590,16.369013,
740006380,Arbrå Lappstan,61.480362,16.369592,
740006381,Forsbro Målarbacken,61.474978,16.390810,
740006382,Arbrå Netsmans,61.484027,16.366430,
740006383,Forsbro Norränge,61.479235,16.402374,
740006384,Forsbro Nysvea,61.471874,16.407111,
740006385,Arbrå Nytorp,61.488853,16.373387,
740006386,Flästa Ol-Lars,61.448555,16.473665,
740006387,Rödsand,61.447028,16.481243,
740006388,Röste,61.393302,16.385485,
740006389,Semyres,61.403392,16.397259,
740006390,Simas,61.448795,16.457510,
740006391,Forsbro Skeppstavägen,61.477605,16.399716,
740006392,Växsjö Storsvedvägen,61.413528,16.410671,
740006393,Arbrå Parkgatan,61.466631,16.380561,
740006394,Lottefors Tallbacken,61.427339,16.408522,
740006395,Tjärnberg,61.449916,16.383910,
740006396,Träslottet,61.453505,16.379945,
740006397,Växsjö,61.406693,16.401777,
740006399,Arbrå Ängeslundsvägen,61.474883,16.379288,
740006400,Arbrå Ängslunda,61.472867,16.370095,
740006401,Flästa Öjungsvägen,61.446242,16.485857,
740006402,Flästa Östergårds,61.455244,16.429405,
740006403,Sörbo (Söräng) Backåkers,61.317597,16.235466,
740006404,Freluga väg 301 Bergströms,61.328550,16.261574,
740006405,Bodåker,61.329674,16.250161,
740006406,Freluga gård,61.325425,16.290734,
740006407,Edstuga,61.331191,16.316373,
740006408,Edstuga Östra,61.332369,16.322854,
740006409,Sörbo (Söräng) Fjälevägen,61.319952,16.211059,
740006410,Freluga,61.326923,16.298451,
740006411,Sörbo (Söräng) Grönstavägen,61.318285,16.221996,
740006412,Karl-Måns,61.333274,16.334972,
740006413,Kilen,61.334133,16.191742,
740006414,Sörbo (Söräng) Kilvägen,61.325285,16.200932,
740006415,Freluga Kolsmyra,61.325291,16.285578,
740006416,Norrbo Lass-Nils,61.332760,16.230911,
740006417,Mödänge,61.319055,16.267299,
740006418,Norrbobacken,61.331116,16.239984,
740006419,Rasslas,61.332844,16.209227,
740006421,Freluga Smensbacken,61.328702,16.305202,
740006422,Kilen Svedbergs,61.334921,16.189080,
740006423,Sörbo (Söräng) Sven-Lars,61.318174,16.246003,
740006424,Sörbo (Söräng),61.316675,16.228957,
740006425,Freluga Sörbovägen,61.325079,16.279450,
740006426,Söräng kvarn,61.334512,16.209398,
740006427,Söräng skola,61.334493,16.218849,
740006428,Edstuga väg 50,61.339882,16.305622,
740006429,Freluga väg 301 Tranbo,61.336001,16.289403,
740006430,Freluga väg 301 Västbacka,61.331921,16.278395,
740006431,Sörbo (Söräng) Strandvägen,61.322344,16.203285,
740006433,Bollnäs Backsveden,61.361637,16.425299,
740006434,Bollnäs Bergsveden,61.357105,16.433173,
740006435,Bollnäs Björktjära förskolan,61.365890,16.384510,
740006436,Bollnäs Björktjära skola,61.363541,16.386206,
740006437,Bollnäs Blomkransen,61.345869,16.371865,
740006438,Bollnäs Björktjäravägen,61.361999,16.394179,
740006440,Sörberge Solbacka Norra,62.507687,17.362715,
740006442,Åsmon vägskäl,63.456438,16.826794,
740006443,Fränsta Vårdcentralen,62.497864,16.174430,
740006444,Långvallen,62.695316,17.842347,
740006445,Snöberg,62.508437,15.368008,
740006446,Gumböle,62.537641,17.462877,
740006447,Åkerö,63.422823,16.565501,
740006448,Forsnäs,63.527090,16.676100,
740006449,Västergissjö Södra,63.511814,18.807632,
740006450,Getingstabodum,63.526607,18.708420,
740006451,Bergvattnet,63.534220,18.662420,
740006452,Tämnäsudden,63.616602,18.636413,
740006453,Näset,63.640951,18.622624,
740006454,Svedjeudden,63.625177,18.634986,
740006455,Kantsjö,63.723715,18.679340,
740006456,Långsjön,63.737156,18.711484,
740006457,Långviken Västra Lemesjön,63.651448,19.043717,
740006459,Bollnäs Bonden,61.355463,16.386486,
740006460,Bollnäs Bornvägen,61.368238,16.387489,
740006464,Bollnäs Bull-Olles,61.356200,16.419005,
740006466,Bollnäs Combigrillen,61.357243,16.422539,
740006469,Bollnäs Granbergsbacken,61.333395,16.390934,
740006470,Thyrsvägen,61.274669,16.628145,
740006471,Bollnäs Granberg,61.331259,16.386842,
740006473,Bollnäs Hallonvägen,61.363278,16.380611,
740006475,Bollnäs Heden,61.355029,16.357227,
740006476,Bollnäs Hedhamre,61.352648,16.383780,
740006477,Bollnäs Hedåsvägen,61.344268,16.346331,
740006478,Bollnäs Aseavägen,61.343410,16.384731,
740006479,Bollnäs Häggesta,61.336031,16.399744,
740006482,Bollnäs Hällbovägen,61.309785,16.378046,
740006483,Bollnäs Höghammar,61.356437,16.426056,
740006484,Bollnäs Höglunda,61.357601,16.394302,
740006485,Bollnäs Karlslund,61.357513,16.400151,
740006486,Bollnäs Kilberg,61.356628,16.411574,
740006487,Bollnäs Kilbergsskolan,61.357416,16.412094,
740006488,Bollnäs Korsnäsvägen,61.385241,16.388011,
740006490,Bollnäs Lagmansvägen,61.360973,16.405171,
740006491,Bollnäs Nyhedsbacken,61.350578,16.374547,
740006493,Bollnäs Mejeriet,61.338183,16.389660,
740006496,Bollnäs Norrlandsvägen,61.365811,16.394624,
740006497,Bollnäs Prästnäset,61.318753,16.389952,
740006498,Bollnäs Rehnstedtska gården,61.352480,16.443547,
740006499,Bollnäs Renbron,61.356217,16.401042,
740006500,Bollnäs Rengården,61.356451,16.406972,
740006501,Bollnäs Rens centrum,61.360595,16.421428,
740006502,Bollnäs Renshammarvägen,61.355721,16.431669,
740006504,Bollnäs Roosesvägen,61.370055,16.402951,
740006506,Bollnäs Sandvägen,61.365981,16.403060,
740006507,Bollnäs Schenströmsplan,61.346204,16.386053,
740006509,Bollnäs Sjukhuset,61.353919,16.362945,
740006510,Bollnäs Sjölunds,61.352975,16.433557,
740006511,Bollnäs Bäverstigen,61.361156,16.383657,
740006512,Bollnäs Gärdet,61.353589,16.388171,
740006513,Bollnäs Stagårdsvägen,61.326641,16.383899,
740006514,Bollnäs Stallbacken,61.344124,16.335006,
740006516,Bollnäs Sunnerstaholm,61.324145,16.386206,
740006517,Bollnäs Sysslomansgatan,61.348732,16.378195,
740006518,Bollnäs Solrosen,61.350616,16.380528,
740006519,Bollnäs Sävsberg,61.343952,16.371101,
740006520,Bollnäs Torsbergsgymnasiet,61.348452,16.384974,
740006521,Bollnäs Åke Wassings väg,61.341397,16.343666,
740006523,Bollnäs Tegelbruksvägen,61.376275,16.388218,
740006524,Bollnäs Tjädervägen,61.361200,16.432432,
740006526,Bollnäs Toven,61.340713,16.445736,
740006527,Bollnäs Tågmästaren,61.344432,16.380677,
740006528,Bollnäs Vevlinge,61.354499,16.431887,
740006529,Bollnäs Vevlingestrand,61.347079,16.435383,
740006530,Bollnäs Vik,61.326115,16.415934,
740006532,Bollnäs Voltersberg,61.355158,16.398892,
740006533,Bollnäs Våtlåg,61.314988,16.387101,
740006534,Bollnäs Åsen,61.343856,16.363869,
740006535,Bollnäs Öberget,61.372803,16.398515,
740006536,Bollnäs Örnvägen,61.361700,16.429133,
740006537,Bollnäs Örsängen,61.359624,16.433747,
740006538,Bofara,61.210847,16.533041,
740006539,Sibo Bäcken,61.213788,16.609940,
740006540,Bäckänge,61.292033,16.535701,
740006541,Böle,61.290447,16.504477,
740006542,Djupa torg,61.286356,16.569178,
740006543,Erik-Ers,61.253225,16.416385,
740006544,Erik-Mårs,61.336802,16.449168,
740006545,Fällene,61.308681,16.455909,
740006546,Fäsjön,61.251128,16.598076,
740006547,Gammel-Leeks,61.276533,16.603023,
740006548,Kilafors Garntjänst,61.228489,16.559697,
740006549,Granbo,61.275067,16.526471,
740006551,Görtsbo,61.297492,16.398587,
740006552,Hallen,61.214875,16.541787,
740006553,Hanebo kyrkväg,61.251033,16.553195,
740006554,Kilafors Haneborg,61.228537,16.570421,
740006555,Harsnäs,61.332071,16.462669,
740006556,Landafors kraftverk,61.273166,16.618374,
740006557,Herte,61.265020,16.405468,
740006558,Hisnäs,61.322282,16.471613,
740006559,Hullsta,61.255904,16.629425,
740006560,Hå,61.237694,16.417611,
740006561,Hå skola,61.242756,16.417374,
740006562,Hårga,61.266961,16.545148,
740006563,Kilafors Hällagården,61.233314,16.558584,
740006564,Innantjära,61.251002,16.581101,
740006565,Jakobs,61.325820,16.469261,
740006567,Johanneses,61.314065,16.488892,
740006568,Sör,61.222528,16.576046,
740006569,Klockarbacken,61.230635,16.418628,
740006570,Knisselbo,61.208871,16.448121,
740006571,Kolmätars,61.217517,16.503643,
740006572,Västansjö Kronåkers,61.209938,16.487009,
740006573,Hanebo Kyrkbybacken,61.244599,16.549838,
740006574,Görtsbo Källvik,61.291111,16.408819,
740006576,Landa,61.274988,16.610889,
740006577,Lanses,61.334721,16.456485,
740006578,Lenninge,61.318303,16.436542,
740006579,Lilltjära,61.213266,16.620626,
740006580,Lillåkers,61.281720,16.587527,
740006581,Lotan,61.216269,16.493306,
740006582,Lund,61.278487,16.597255,
740006583,Biografteatern,61.230223,16.565882,
740006584,Löten,61.208658,16.529698,
740006585,Murar-Holgers,61.206178,16.463247,
740006587,Västerberg Nolagatan,61.211284,16.516715,
740006588,Görtsbo Norra,61.304097,16.386078,
740006589,Norrbyn,61.251723,16.551609,
740006590,Sibo Persbacka,61.212304,16.608916,
740006591,Hallen Petterssons,61.217772,16.547047,
740006592,Ricknäs,61.277226,16.397198,
740006593,Rotemo,61.252697,16.562270,
740006594,Segersta kyrka,61.267741,16.638439,
740006595,Segersta skola,61.270131,16.636396,
740006598,Stenbacka,61.226866,16.420640,
740006599,Hullsta Storms,61.251254,16.613225,
740006600,Sveden,61.291528,16.542704,
740006601,Gubberg,61.286009,16.514039,
740006602,Gamla Sibovägen,61.215155,16.603369,
740006603,Herte såg,61.260485,16.416283,
740006604,Sibo Templet,61.214620,16.613404,
740006606,Lilltjära Valsbäcken,61.212765,16.629377,
740006607,Lilltjära Vassbacken,61.213119,16.625628,
740006609,Knisselbo Vestlens,61.212507,16.436324,
740006610,Vinkällan,61.307274,16.502686,
740006611,Voxsätter,61.312358,16.445009,
740006612,Västergårds,61.319658,16.479586,
740006613,Österbacken,61.311621,16.496698,
740006614,Berga,61.349727,16.619683,
740006616,Björtomta,61.350127,16.642606,
740006617,Blykällarbacken,61.367093,16.638908,
740006618,Bodarna,61.347599,16.491211,
740006619,Boives,61.347739,16.712639,
740006622,Ehrins,61.350547,16.511347,
740006624,Åkre Fromskroken,61.352354,16.583381,
740006628,Berga Gåsjön,61.350213,16.613529,
740006629,Görtsberg,61.357000,16.588375,
740006632,Växbo Hägnabacken,61.403391,16.514091,
740006633,Östra Höle Brolins,61.377891,16.628234,
740006635,Knyssla,61.350599,16.668952,
740006636,Källgården,61.367683,16.648011,
740006638,Lapphagen,61.374641,16.634320,
740006639,Laviken,61.391328,16.484420,
740006642,Mosseln,61.352165,16.572368,
740006643,Nybruket,61.387212,16.609169,
740006645,Rabo,61.346023,16.479722,
740006646,Rengsjö skola,61.362498,16.602964,
740006648,Röstebo,61.384242,16.401163,
740006650,Rengsjö Skomakarbacken,61.366082,16.627961,
740006651,Snällens,61.396501,16.585974,
740006652,Svedja Lintjärn,61.392068,16.592170,
740006654,Slakttjärn,61.388510,16.602073,
740006657,Torpet,61.351873,16.555484,
740006658,Sörom Trolldalen,61.405646,16.562051,
740006660,Västra Växbo,61.401213,16.504926,
740006661,Vallanes,61.390327,16.413292,
740006663,Västerböle,61.352263,16.589845,
740006664,Växbo skolan,61.407407,16.543745,
740006665,Yxbo,61.351833,16.546363,
740006667,Änge,61.401726,16.574536,
740006668,Östra Höle,61.380021,16.623276,
740006672,Snatbo,61.543407,16.420772,
740006677,Bollnäs Norr,61.369167,16.392593,
740006680,Iste,61.578207,16.402466,
740006681,Brönars,61.321094,16.274610,
740006682,Högmyr,61.596115,16.297328,
740006683,Mårdnäs,61.264387,16.636524,
740006684,Sveden Säll-Pelles,61.291675,16.555205,
740006685,Stocksätter,61.329203,16.465560,
740006686,Tvättnäs,61.297084,16.520707,
740006687,Ön,61.378401,16.403035,
740006700,Näsviken Blomberget,61.767249,16.878706,
740006701,Näsviken Hällvägen,61.762814,16.875540,
740006702,Näsviken skolan,61.758196,16.869302,
740006703,Östra Bölan,61.492969,16.943980,
740006704,Vedmora,61.525894,16.956122,
740006705,Tosätter,61.529725,16.960493,
740006706,Kymo,61.531760,16.967054,
740006707,Grimbo,61.535309,16.976061,
740006708,Enånger Notdragarvägen,61.551552,17.013296,
740006709,Enånger Kyrkmyravägen,61.548473,17.000142,
740006710,Hålsänge,61.568938,17.025171,
740006711,Njöte,61.591055,17.027829,
740006712,Skarplycka,61.596446,17.038157,
740006713,Njutånger Betaniavägen,61.601606,17.048028,
740006714,Njutånger Fegärde,61.611453,17.050815,
740006715,Njutånger kyrka,61.617936,17.050510,
740006716,Prästtjärn,61.622959,17.053729,
740006717,Långviken,61.630984,17.059445,
740006718,Iggesund Brunnsnäs,61.635404,17.073545,
740006720,Iggesund Forsavägen,61.640904,17.076675,
740006721,Iggesund Kryllbo,61.640305,17.083064,
740006722,Iggesunds bruk,61.640730,17.086647,
740006727,Iggesund Trekanten,61.653292,17.084015,
740006728,Hudiksvall Dammsveden,61.700670,17.072289,
740006729,Hudiksvall Håstaängen,61.714160,17.085683,
740006730,Hudiksvall Bilmetro,61.716665,17.094202,
740006731,Hudiksvall Vallvägen,61.719324,17.097680,
740006732,Hudiksvall Tunbacka,61.722821,17.100928,
740006733,Hudiksvall Kyrkbacken,61.725510,17.102252,
740006734,Hudiksvall Sjukhuset,61.729876,17.100789,
740006737,Hudiksvall Bowlinghallen,61.732801,17.103693,
740006738,Hudiksvall Solbacka,61.737607,17.104198,
740006739,Hudiksvall Sandvalla,61.742888,17.117973,
740006740,Hudiksvall Ullsäter indomr,61.748118,17.120051,
740006741,Hudiksvall Sanna,61.752691,17.120416,
740006742,Hudiksvall Fläsbro,61.760337,17.122333,
740006743,Hagmyren,61.767925,17.124722,
740006744,Masbo,61.772521,17.126472,
740006747,Välsta gård,61.798992,17.170938,
740006748,Steg,61.839471,17.195654,
740006749,Välsta Silja,61.803832,17.178757,
740006750,Välsta,61.805429,17.185960,
740006751,Malsta,61.809213,17.196980,
740006752,Malsta skola,61.809905,17.203044,
740006753,Via,61.817129,17.206712,
740006754,Lurbacken,61.819909,17.209533,
740006755,Långsjön-Via,61.829075,17.229350,
740006756,Stamnäs,61.833248,17.255970,
740006757,Hudiksvall Tunavägen,61.739435,17.104502,
740006758,Hudiksvall Överås,61.741458,17.099307,
740006759,Hudiksvall Tunbyn,61.744013,17.089098,
740006760,Hudiksvall Hälsingtuna,61.755618,17.083256,
740006761,Hudiksvall Finflo,61.759284,17.075985,
740006762,Hällsätter,61.763479,17.058941,
740006763,Hög kyrka,61.766619,17.041225,
740006766,Baldra,61.771398,17.024688,
740006767,Västanåker,61.772904,17.013683,
740006768,Edsta Kolmo,61.773147,17.009524,
740006769,Hög Edsta,61.772805,17.001402,
740006770,Tåsta,61.772977,16.996104,
